,id,date,price,bedrooms,bathrooms,sqft_living,sqft_lot,floors,waterfront,greenbelt,nuisance,view,condition,grade,heat_source,sewer_system,sqft_above,sqft_basement,sqft_garage,sqft_patio,yr_built,yr_renovated,lat,long,street,city,state,zipcode,status,walkscore,snapped_lat,snapped_lon,bike_score
0,7399300360,2022-05-24,675000.0,4,1.0,1180,7140,1.0,NO,NO,NO,NONE,Good,7 Average,Gas,PUBLIC,1180,0,0,40,1969,0,47.461975,-122.19052,2102 Southeast 21st Court, Renton,WA,98055,1,13.0,47.4615,-122.19,34.0
1,8910500230,2021-12-13,920000.0,5,2.5,2770,6703,1.0,NO,NO,YES,AVERAGE,Average,7 Average,Oil,PUBLIC,1570,1570,0,240,1950,0,47.711525,-122.35591,11231 Greenwood Avenue North, Seattle,WA,98133,1,60.0,47.712,-122.3565,63.0
2,1180000275,2021-09-29,311000.0,6,2.0,2880,6156,1.0,NO,NO,NO,AVERAGE,Average,7 Average,Gas,PUBLIC,1580,1580,0,0,1956,0,47.502045,-122.2252,8504 South 113th Street, Seattle,WA,98178,1,35.0,47.502,-122.2245,48.0
3,1604601802,2021-12-14,775000.0,3,3.0,2160,1400,2.0,NO,NO,NO,AVERAGE,Average,9 Better,Gas,PUBLIC,1090,1070,200,270,2010,0,47.56611,-122.2902,4079 Letitia Avenue South, Seattle,WA,98118,1,82.0,47.5665,-122.2905,58.0
4,8562780790,2021-08-24,592500.0,2,2.0,1120,758,2.0,NO,NO,YES,NONE,Average,7 Average,Electricity,PUBLIC,1120,550,550,30,2012,0,47.53247,-122.07188,2193 Northwest Talus Drive, Issaquah,WA,98027,1,14.0,47.532,-122.0715,13.0
5,2807100156,2021-07-20,625000.0,2,1.0,1190,5688,1.0,NO,NO,YES,NONE,Average,7 Average,Electricity,PUBLIC,1190,0,300,0,1948,0,47.76347,-122.340155,1602 North 185th Street, Shoreline,Washington,98133,1,68.0,47.763,-122.34,78.0
6,5122400111,2021-11-17,1317227.0,3,3.0,2080,27574,1.0,NO,NO,NO,AVERAGE,Good,9 Better,Oil,PRIVATE,2080,0,0,150,1951,0,47.45547,-122.36722,2633 Southwest 164th Place, Burien,Washington,98166,1,2.0,47.4555,-122.367,9.0
7,7137850210,2022-04-28,820000.0,3,2.5,2214,3506,2.0,NO,NO,NO,NONE,Average,8 Good,Gas,PUBLIC,2214,0,440,206,2019,0,47.378355,-122.178625,24913 122nd Place Southeast, Kent,Washington,98030,1,21.0,47.379,-122.178,27.0
8,2944500680,2022-03-17,780000.0,4,2.5,2340,8125,2.0,NO,NO,NO,NONE,Average,8 Good,Gas,PUBLIC,2340,0,440,70,1989,0,47.29377,-122.36932,2721 Southwest 343rd Place, Federal Way,Washington,98023,1,32.0,47.2935,-122.37,25.0
9,2619950340,2021-06-21,975000.0,4,2.5,2980,5859,2.0,NO,NO,NO,AVERAGE,Average,8 Good,Gas,PUBLIC,2980,0,540,170,2011,0,47.73317,-121.965305,27950 Northeast 147th Circle, Duvall,Washington,98019,1,25.0,47.733,-121.965,25.0
10,3726800276,2022-06-01,1025000.0,3,1.5,2570,6379,1.5,NO,NO,YES,NONE,Average,7 Average,Oil,PUBLIC,1980,1560,0,250,1912,0,47.57276,-122.3082,3408 Beacon Avenue South, Seattle,Washington,98144,1,75.0,47.5725,-122.3085,95.0
11,2873000690,2021-06-11,680000.0,4,3.0,2130,7649,1.0,NO,NO,NO,NONE,Very Good,7 Average,Electricity,PUBLIC,1130,1100,440,280,1975,0,47.418155,-122.16696,20432 130th Place Southeast, Kent,Washington,98031,1,6.0,47.418,-122.1675,49.0
12,1797501124,2021-06-25,750000.0,3,2.0,1280,964,3.0,NO,NO,YES,NONE,Average,7 Average,Electricity,PUBLIC,1280,0,0,380,2021,0,41.225811,-96.001397,5712 A Street, Omaha,Nebraska,68106,1,42.0,41.226,-96.0015,19.0
13,3845100260,2021-11-15,828000.0,4,3.0,3170,6343,2.0,NO,NO,NO,NONE,Average,9 Better,Gas,PUBLIC,3170,0,450,220,2015,0,47.25768,-122.19453,2634 57th Street Southeast, Auburn,Washington,98092,1,8.0,47.2575,-122.1945,26.0
14,1895460330,2021-08-26,661000.0,4,2.5,2408,7202,2.0,NO,NO,NO,NONE,Average,8 Good,Gas,PUBLIC,2408,0,662,0,2005,0,47.291935,-122.35801,1781 Southwest 345th Place, Federal Way,Washington,98023,1,42.0,47.292,-122.358,54.0
15,5540800120,2022-03-28,1500000.0,4,2.5,1980,5100,2.0,NO,NO,NO,NONE,Good,7 Average,Gas,PUBLIC,1980,0,0,0,1944,0,47.69469,-122.34601,927 North 91st Street, Seattle,Washington,98103,1,81.0,47.694,-122.346,74.0
16,4036100065,2021-06-16,1318000.0,3,2.5,2420,19664,1.0,NO,NO,NO,NONE,Average,8 Good,Gas,PUBLIC,2420,1310,530,130,1956,0,47.56202,-122.184122,11620 Southeast 47th Place, Bellevue,Washington,98006,1,15.0,47.562,-122.184,39.0
17,7625702937,2022-03-23,735000.0,3,3.5,1670,1425,2.0,NO,NO,YES,NONE,Average,8 Good,Gas,PUBLIC,1240,430,0,150,2007,0,47.542445,-122.389655,Fauntleroy Way Southwest, Seattle,Washington,98136,1,82.0,47.5425,-122.3895,73.0
18,9521101052,2022-03-24,739950.0,2,2.0,1000,1414,3.0,NO,NO,NO,NONE,Average,8 Good,Electricity,PUBLIC,1000,0,0,220,2021,0,47.66246,-122.34841000000002,4640 Linden Avenue North, Seattle,Washington,98103,1,85.0,47.6625,-122.349,84.0
19,4083800770,2021-09-28,702000.0,3,1.0,1100,4000,1.5,NO,NO,NO,NONE,Average,7 Average,Gas,PUBLIC,1100,660,0,50,1910,0,47.6638,-122.33861,1608 North 48th Street, Seattle,Washington,98103,1,81.0,47.664,-122.3385,97.0
20,2207200290,2021-10-19,1320000.0,3,2.0,1640,7875,1.0,NO,NO,YES,NONE,Very Good,7 Average,Gas,PUBLIC,1640,0,290,370,1956,0,47.59924,-122.14092,1249 149th Place Southeast, Bellevue,Washington,98007,1,58.0,47.5995,-122.1405,62.0
21,2310000170,2022-02-28,750000.0,3,2.0,1590,7754,1.0,NO,YES,NO,NONE,Good,7 Average,Gas,PUBLIC,1200,700,440,0,1990,0,47.35706500000001,-122.04067,27307 226th Avenue Southeast, Maple Valley,Washington,98038,1,16.0,47.3565,-122.04,37.0
22,7231501575,2021-12-28,450000.0,2,1.0,900,6000,1.0,NO,NO,NO,NONE,Average,6 Low Average,Gas,PUBLIC,810,810,0,0,1941,0,47.47536,-122.20573,533 Wells Avenue South, Renton,Washington,98057,1,87.0,47.475,-122.205,32.0
23,9359300410,2021-11-19,1650000.0,4,3.5,3400,30385,2.0,NO,NO,NO,NONE,Average,9 Better,Gas,PRIVATE,3400,0,730,490,1989,0,47.77575,-122.09139,18320 Northeast 204th Court, Woodinville,Washington,98077,1,0.0,47.7765,-122.091,21.0
24,9842300355,2021-11-04,785000.0,3,2.5,1820,4161,1.0,NO,NO,YES,NONE,Average,7 Average,Gas,PUBLIC,960,860,320,140,1947,2005,47.528585,-122.38081499999998,3734 Southwest Thistle Street, Seattle,Washington,98126,1,54.0,47.529,-122.3805,56.0
25,2095600170,2021-10-08,580000.0,3,3.0,2020,4482,1.0,NO,NO,NO,NONE,Average,7 Average,Gas,PUBLIC,1370,1250,600,120,1992,0,47.39947,-122.20413,22609 102nd Place Southeast, Kent,Washington,98031,1,19.0,47.4,-122.2035,25.0
26,8682282030,2022-05-04,2000000.0,3,3.0,2700,7694,1.0,NO,NO,NO,NONE,Average,9 Better,Gas,PUBLIC,2700,0,530,640,2006,0,47.70876,-122.02073,23837 NE Adair Rd, Redmond,Washington,98053,1,12.0,47.709,-122.0205,32.0
27,5424700190,2022-02-26,4500000.0,4,3.0,2760,13150,1.5,NO,NO,NO,NONE,Good,9 Better,Oil,PUBLIC,2760,0,0,160,1954,0,47.61571,-122.22399,8637 Northeast 6th Street, Medina,Washington,98039,1,16.0,47.616,-122.2245,10.0
28,7517500295,2021-09-07,1625000.0,4,4.0,3280,7200,2.0,NO,NO,NO,NONE,Very Good,8 Good,Gas,PUBLIC,2060,1220,0,540,1905,0,47.662625,-122.359275,200 Northwest 46th Street, Seattle,Washington,98107,1,64.0,47.6625,-122.3595,66.0
29,1036700120,2021-09-13,880000.0,3,2.5,2390,3600,2.0,NO,NO,NO,NONE,Average,9 Better,Gas,PUBLIC,2390,0,550,0,1975,0,47.623335,-122.112581,1428 170th Place Northeast, Bellevue,Washington,98008,1,17.0,47.6235,-122.112,44.0
30,9320600110,2021-08-18,500000.0,3,1.5,1140,9690,1.0,NO,NO,NO,NONE,Good,7 Average,Gas,PUBLIC,1140,0,550,0,1964,0,47.411835,-122.20954,9812 South 212th Street, Kent,Washington,98031,1,20.0,47.412,-122.2095,25.0
31,6450304798,2021-08-20,730000.0,3,2.0,1570,1184,3.0,NO,NO,NO,NONE,Average,8 Good,Electricity,PUBLIC,1480,340,250,30,2021,0,47.730855,-122.343575,14011 Lenora Place North, Seattle,Washington,98133,1,68.0,47.7315,-122.343,79.0
32,8724900170,2021-08-16,670000.0,3,2.5,1530,955,2.0,NO,NO,NO,NONE,Average,8 Good,Gas,PUBLIC,1290,660,420,180,2016,0,47.73439000000001,-122.290235,14607 36th Court Northeast, Lake Forest Park,Washington,98155,1,61.0,47.7345,-122.2905,74.0
33,6404600046,2022-04-11,625000.0,3,1.0,1040,12600,1.0,NO,NO,NO,NONE,Average,7 Average,Gas,PUBLIC,1040,1040,360,0,1961,0,47.483795,-122.304085,13240 22nd Avenue South, SeaTac,Washington,98168,1,30.0,47.484,-122.304,46.0
34,5727500011,2021-11-03,785000.0,3,2.0,1350,7354,1.0,NO,NO,YES,NONE,Very Good,7 Average,Electricity,PUBLIC,1350,0,460,120,1985,0,47.75102,-122.33447,16710 Meridian Avenue North, Shoreline,Washington,98133,1,40.0,47.751,-122.334,43.0
35,1025039284,2022-03-02,2065000.0,4,3.5,3640,9710,2.0,NO,NO,NO,AVERAGE,Good,10 Very Good,Electricity,PUBLIC,2390,1650,720,470,1987,0,47.665625,-122.409095,4820 40th Avenue West, Seattle,Washington,98199,1,21.0,47.6655,-122.409,27.0
36,1925059107,2021-06-29,2450000.0,4,3.5,2300,8370,2.0,NO,NO,NO,NONE,Average,9 Better,Gas,PUBLIC,2300,0,560,110,1950,1995,47.639005,-122.214107,9411 Northeast 32nd Street, Clyde Hill,Washington,98004,1,22.0,47.6385,-122.214,37.0
37,1447710320,2022-04-01,1379400.0,5,4.0,3540,9110,2.0,NO,NO,NO,NONE,Average,8 Good,Gas,PUBLIC,3540,0,690,300,2022,0,47.47509,-121.76786,1240 SE 18th Street, North Bend,Washington,98045,1,5.0,47.475,-121.7685,27.0
38,1329300080,2021-11-20,785000.0,4,2.5,2640,6081,2.0,NO,NO,NO,NONE,Average,8 Good,Gas,PUBLIC,2640,0,420,50,2012,0,47.35236,-122.175035,12426 Southeast 278th Place, Kent,Washington,98030,1,37.0,47.352,-122.175,33.0
39,1421059003,2021-08-25,1680000.0,3,2.5,5200,206039,1.0,NO,NO,NO,NONE,Average,10 Very Good,Gas,PRIVATE,3170,2030,1080,670,2007,0,47.310595,-122.12938,15916 Southeast 326th Street, Auburn,Washington,98092,1,8.0,47.31,-122.13,25.0
40,3340401570,2022-03-02,750000.0,3,2.0,1830,7969,1.0,NO,NO,NO,NONE,Average,7 Average,Gas,PUBLIC,930,930,240,90,1950,2008,47.46673,-122.214,306 South 15th Street, Renton,Washington,98055,1,25.0,47.466,-122.214,18.0
41,1494300080,2022-03-16,1600000.0,3,2.5,1790,17799,1.0,NO,NO,NO,NONE,Good,7 Average,Gas,PUBLIC,1300,1030,480,170,1981,0,47.678755,-122.11522,8501 169th Court Northeast, Redmond,Washington,98052,1,60.0,47.679,-122.115,58.0
42,644000080,2021-07-09,1709500.0,4,3.0,2150,11550,2.0,NO,NO,NO,NONE,Good,8 Good,Gas,PUBLIC,2150,0,0,0,1950,1978,47.589,-122.19474,10924 Southeast 24th Place, Bellevue,Washington,98004,1,23.0,47.589,-122.1945,42.0
43,1726059053,2022-03-22,3850000.0,5,3.5,4180,209959,1.0,NO,NO,NO,NONE,Average,8 Good,Gas,PRIVATE,4180,0,0,0,2016,0,47.74546,-122.19498,10919 Northeast 164th Lane, Bothell,Washington,98011,1,10.0,47.745,-122.1945,44.0
44,686400460,2021-06-14,1800000.0,6,3.0,3870,9463,1.5,NO,NO,NO,NONE,Good,8 Good,Gas,PUBLIC,3870,0,420,480,1966,0,47.63255,-122.115375,16850 Northeast 25th Street, Bellevue,Washington,98008,1,25.0,47.6325,-122.115,51.0
45,6053400345,2021-12-13,315000.0,3,1.0,1150,6477,1.0,NO,NO,NO,NONE,Good,7 Average,Gas,PUBLIC,1150,0,0,80,1950,0,47.311495,-122.228075,415 B Street Northeast, Auburn,Washington,98002,1,85.0,47.3115,-122.2275,63.0
46,3797000950,2021-11-12,995930.0,3,2.0,1920,3000,1.5,NO,NO,NO,NONE,Good,7 Average,Oil,PUBLIC,1170,940,240,50,1928,0,47.68571,-122.3458,930 North 78th Street, Seattle,Washington,98103,1,91.0,47.685,-122.346,85.0
47,1154100195,2021-11-05,706000.0,2,1.0,1220,7500,1.0,NO,NO,NO,NONE,Good,7 Average,Electricity,PUBLIC,1220,0,0,280,1947,0,47.75534,-122.283185,4056 Northeast 174th Street, Lake Forest Park,Washington,98155,1,70.0,47.7555,-122.283,71.0
48,5469700570,2021-06-23,810000.0,5,3.0,3030,24759,1.0,NO,NO,NO,NONE,Very Good,8 Good,Gas,PUBLIC,1670,1400,580,90,1969,0,47.39079,-122.17303,12605 Southeast 235th Street, Kent,Washington,98031,1,25.0,47.391,-122.1735,33.0
49,2026079017,2021-07-22,1220000.0,4,3.0,3450,100938,2.0,NO,NO,YES,NONE,Average,9 Better,Gas,PRIVATE,3450,0,690,820,2005,0,47.71812,-121.94839,13415 Batten Road Northeast, Duvall,Washington,98019,1,10.0,47.718,-121.9485,31.0
50,1241500157,2022-06-02,1000000.0,2,1.0,1320,9000,1.0,NO,NO,YES,NONE,Average,7 Average,Electricity,PUBLIC,1320,0,0,0,1960,0,47.667855,-122.164325,7039 132nd Avenue Northeast, Kirkland,Washington,98033,1,74.0,47.6685,-122.1645,70.0
51,913000340,2021-08-20,1090000.0,2,1.5,1360,1638,1.0,NO,NO,NO,EXCELLENT,Average,8 Good,Gas,PUBLIC,680,680,0,350,1910,2015,47.583235,-122.399375,2325 Hobart Avenue Southwest, Seattle,Washington,98116,1,54.0,47.583,-122.4,53.0
52,8019200245,2022-05-19,235000.0,2,1.0,700,14750,1.5,NO,NO,NO,NONE,Fair,5 Fair,Electricity,PRIVATE,700,0,0,0,1934,0,47.49471,-122.32014,12036 10th Avenue South, Burien,Washington,98168,1,25.0,47.4945,-122.3205,41.0
53,7548300606,2022-05-03,960000.0,3,2.0,1280,1221,2.0,NO,NO,NO,NONE,Average,8 Good,Electricity,PUBLIC,980,300,0,400,2019,0,39.460807,-75.015361,1820 South State Street, Vineland,New,Jersey,1,24.0,39.4605,-75.015,29.0
54,2683100015,2021-09-10,835000.0,4,1.5,2650,8129,1.5,NO,NO,NO,NONE,Average,7 Average,Oil,PUBLIC,1470,1230,240,0,1955,0,47.71114,-122.33209,2147 North 114th Street, Seattle,Washington,98133,1,59.0,47.7105,-122.3325,63.0
55,1697000020,2022-02-15,656000.0,4,1.0,1940,8250,2.0,NO,NO,NO,NONE,Average,7 Average,Electricity,PUBLIC,1750,190,420,210,1968,0,47.372595,-122.312055,1625 South 255th Place, Des Moines,Washington,98198,1,32.0,47.373,-122.3115,46.0
56,521059083,2021-08-31,37440.0,4,2.5,1670,13703,1.0,NO,NO,NO,NONE,Average,7 Average,Gas,PUBLIC,1140,1100,530,240,1967,0,47.33012,-122.19378,30326 110th Place Southeast, Auburn,Washington,98092,1,16.0,47.3295,-122.1945,12.0
57,1453602161,2021-12-14,765000.0,3,2.0,1240,7440,1.0,NO,NO,YES,NONE,Good,7 Average,Electricity,PUBLIC,1240,830,340,350,1941,0,47.72393,-122.29049,13032 35th Avenue Northeast, Seattle,Washington,98125,1,86.0,47.724,-122.2905,67.0
58,2595650230,2022-04-13,770000.0,4,2.5,1980,13216,2.0,NO,NO,NO,NONE,Average,8 Good,Gas,PUBLIC,1980,0,890,60,1993,0,47.35278,-122.27161,27805 50th Place South, Auburn,Washington,98001,1,6.0,47.3535,-122.271,2.0
59,5153200346,2021-12-07,645000.0,3,2.0,1920,16000,1.0,NO,NO,NO,FAIR,Average,7 Average,Oil,PRIVATE,1310,1310,700,290,1958,0,47.33135,-122.35089,30121 12th Avenue Southwest, Federal Way,Washington,98023,1,26.0,47.331,-122.3505,38.0
60,6071200660,2022-04-19,1500000.0,3,1.5,1430,8735,1.0,NO,NO,NO,NONE,Very Good,8 Good,Gas,PUBLIC,1430,0,500,200,1958,0,47.556225,-122.18317,5214 116th Place Southeast, Bellevue,Washington,98006,1,53.0,47.556,-122.1825,60.0
61,6365900045,2022-05-31,740000.0,3,1.0,1330,5750,1.0,NO,NO,NO,NONE,Average,7 Average,Oil,PUBLIC,1330,0,0,150,1949,0,47.567825,-122.39783,4021 51st Avenue Southwest, Seattle,Washington,98116,1,48.0,47.568,-122.3985,46.0
62,1934800106,2021-08-24,740000.0,2,2.0,1120,734,3.0,NO,NO,NO,NONE,Average,9 Better,Electricity,PUBLIC,1120,0,0,260,2021,0,38.07587,-88.53576,1804 Spruce Street, McLeansboro,Illinois,62859,1,2.0,38.076,-88.536,27.0
63,8682321450,2021-07-29,1500000.0,2,2.5,2170,9714,1.0,NO,YES,NO,NONE,Average,8 Good,Gas,PUBLIC,2170,0,580,460,2009,0,47.712125,-122.023085,12643 237th Way Northeast, Redmond,Washington,98053,1,8.0,47.712,-122.0235,37.0
64,4385701220,2021-06-18,1835000.0,3,3.5,1880,2510,2.0,NO,NO,NO,FAIR,Average,9 Better,Gas,PUBLIC,1620,700,440,220,1992,0,47.640365,-122.277315,2345 43rd Avenue East, Seattle,Washington,98112,1,73.0,47.64,-122.277,56.0
65,2540830020,2021-09-16,905000.0,3,2.5,1630,6449,1.0,NO,NO,NO,NONE,Good,7 Average,Electricity,PUBLIC,1310,640,510,80,1986,0,47.727545,-122.231665,14037 82nd Place Northeast, Kirkland,Washington,98034,1,39.0,47.727,-122.232,33.0
66,3424069224,2021-06-20,1007500.0,4,2.0,1890,36087,1.0,NO,NO,YES,NONE,Good,7 Average,Oil,PRIVATE,1890,0,440,320,1961,0,47.5186,-122.029015,1040 2nd Avenue Southeast, Issaquah,Washington,98027,1,22.0,47.5185,-122.0295,51.0
67,3449500145,2021-10-21,275000.0,4,1.0,1700,7692,1.0,NO,NO,NO,NONE,Average,7 Average,Gas,PUBLIC,1200,1150,450,120,1958,0,47.506905,-122.175105,1701 Monroe Avenue Northeast, Renton,Washington,98056,1,68.0,47.5065,-122.175,38.0
68,869700560,2022-05-24,590000.0,2,2.5,1220,1928,2.0,NO,NO,NO,NONE,Average,8 Good,Electricity,PUBLIC,1220,0,440,0,1999,0,47.49135,-122.1544,555 Elma Place Northeast, Renton,Washington,98059,1,76.0,47.4915,-122.154,56.0
69,3580900130,2021-11-17,871000.0,3,2.0,1210,8640,1.5,NO,NO,NO,NONE,Good,7 Average,Electricity,PUBLIC,1210,0,420,0,1962,0,47.728905,-122.240885,14127 75th Avenue Northeast, Kirkland,Washington,98034,1,61.0,47.7285,-122.241,38.0
70,1282301041,2021-06-11,1375000.0,4,2.0,1980,8200,2.0,NO,NO,NO,NONE,Very Good,8 Good,Gas,PUBLIC,1980,990,0,700,1900,0,47.574815,-122.29159,3219 South Byron Street, Seattle,Washington,98144,1,81.0,47.5755,-122.292,78.0
71,2424000150,2021-10-29,770000.0,3,1.5,1690,40495,1.0,NO,NO,NO,NONE,Average,7 Average,Gas,PRIVATE,1690,0,510,340,1963,0,47.52087,-122.16122,13253 Southeast 91st Street, Newcastle,Washington,98059,1,6.0,47.5215,-122.1615,15.0
72,1242700053,2021-07-21,1600000.0,4,2.5,3890,44032,1.0,NO,NO,NO,NONE,Average,8 Good,Gas,PUBLIC,2150,1740,580,730,1969,0,47.634615,-122.178645,12135 Northeast 28th Street, Bellevue,Washington,98005,1,38.0,47.634,-122.178,37.0
73,1830700010,2021-08-18,609000.0,2,2.0,1150,8838,2.0,NO,NO,YES,NONE,Average,7 Average,Gas,PUBLIC,1150,0,0,0,1984,0,47.718445,-122.22913,8404 Northeast 131st Place, Kirkland,Washington,98034,1,20.0,47.718,-122.229,31.0
74,5453600300,2021-09-29,1825000.0,5,3.0,3470,10893,1.0,NO,NO,NO,NONE,Very Good,9 Better,Gas,PUBLIC,1810,1810,530,110,1965,0,47.536275,-122.237065,7425 Mercer Terrace Drive, Mercer Island,Washington,98040,1,21.0,47.5365,-122.2365,28.0
75,1447710380,2021-12-08,1119725.0,4,2.5,3080,7650,2.0,NO,NO,NO,NONE,Average,8 Good,Gas,PUBLIC,3080,0,420,220,2022,0,47.47508,-121.76637,1332 SE 18th Street, North Bend,Washington,98045,1,8.0,47.475,-121.767,27.0
76,8563050390,2021-12-11,1516000.0,3,2.0,1670,8755,1.0,NO,NO,NO,NONE,Very Good,8 Good,Gas,PUBLIC,1670,0,530,0,1968,0,47.628725,-122.092037,18521 Northeast 21st Street, Redmond,Washington,98052,1,5.0,47.628,-122.0925,20.0
77,125079032,2021-12-06,1560000.0,4,3.0,3360,871200,2.0,NO,NO,NO,AVERAGE,Average,8 Good,Gas,PRIVATE,3360,0,950,350,2000,0,47.6797,-121.86345,35509 NE 91st Way, Carnation,Washington,98014,1,1.0,47.679,-121.863,10.0
78,2895850680,2021-12-20,687388.0,3,3.5,1720,1674,2.0,NO,NO,NO,NONE,Average,8 Good,Electricity,PUBLIC,1410,700,390,120,2021,0,47.51423,-122.34836,1049 Southwest 99th Place, Seattle,Washington,98106,1,86.0,47.514,-122.349,59.0
79,3526069063,2021-08-02,1575000.0,4,3.5,3210,216493,2.0,NO,NO,NO,AVERAGE,Average,8 Good,Electricity,PRIVATE,3210,0,820,1290,1985,0,47.68837,-122.00594,10116 248th Avenue Northeast, Redmond,Washington,98053,1,7.0,47.688,-122.0055,21.0
80,7697910040,2022-04-19,694000.0,4,2.0,1660,6507,2.0,NO,NO,NO,NONE,Good,7 Average,Gas,PUBLIC,1660,0,440,100,1990,0,47.3656,-122.17915,12031 Southeast 263rd Street, Kent,Washington,98030,1,39.0,47.3655,-122.1795,44.0
81,1447600181,2022-01-14,370000.0,3,1.5,1040,8550,1.0,NO,NO,YES,NONE,Very Good,7 Average,Oil,PRIVATE,1040,0,420,70,1959,0,47.488735,-122.329445,306 South 128th Street, Burien,Washington,98168,1,57.0,47.4885,-122.3295,58.0
82,9551203390,2021-09-28,1200000.0,3,2.0,1130,3825,2.0,NO,NO,NO,NONE,Very Good,7 Average,Gas,PUBLIC,1130,0,0,40,1900,0,47.67203,-122.33452,5854 Mckinley Place North, Seattle,Washington,98103,1,66.0,47.6715,-122.334,91.0
83,2767601975,2021-12-13,825000.0,3,1.0,1520,2792,1.5,NO,NO,YES,NONE,Average,6 Low Average,Gas,PUBLIC,1520,0,0,80,1901,0,47.673995,-122.379735,1716 Northwest 62nd Street, Seattle,Washington,98107,1,93.0,47.6745,-122.379,94.0
84,6865200085,2022-03-07,2500000.0,4,3.5,3120,3801,2.0,NO,NO,YES,NONE,Average,8 Good,Electricity,PUBLIC,2540,1170,590,380,2021,0,47.664785,-122.341635,1305 North 50th Street, Seattle,Washington,98103,1,83.0,47.6655,-122.3415,95.0
85,4023500210,2021-11-29,900000.0,4,3.0,2520,8875,1.0,NO,NO,NO,NONE,Good,8 Good,Gas,PUBLIC,1610,1630,560,340,1977,0,47.762405,-122.297405,18247 30th Avenue Northeast, Lake Forest Park,Washington,98155,1,16.0,47.763,-122.298,25.0
86,3905100640,2021-08-16,1225000.0,4,2.5,2030,4791,2.0,NO,NO,NO,NONE,Average,8 Good,Gas,PUBLIC,2030,0,440,130,1994,0,47.56911,-122.00379,25217 Southeast 42nd Drive, Sammamish,Washington,98029,1,48.0,47.5695,-122.004,72.0
87,2768200070,2021-11-30,950000.0,3,2.5,2390,5000,1.5,NO,NO,NO,NONE,Average,7 Average,Gas,PUBLIC,1590,1060,0,0,1912,0,47.66927,-122.36543,5517 7th Avenue Northwest, Seattle,Washington,98107,1,83.0,47.67,-122.3655,88.0
88,9828702665,2022-04-02,1061000.0,3,2.5,1490,959,2.0,NO,NO,NO,NONE,Average,8 Good,Gas,PUBLIC,1020,470,0,0,2005,0,47.6183,-122.30105,1826B 24th Ave, Seattle,Washington,98122,1,90.0,47.619,-122.301,69.0
89,1321400270,2022-05-02,426000.0,3,2.5,1715,8250,2.0,NO,NO,NO,NONE,Average,7 Average,Gas,PUBLIC,1715,0,534,60,1995,0,47.3089,-122.325735,616 South 328th Place, Federal Way,Washington,98003,1,55.0,47.3085,-122.325,54.0
90,2149800115,2021-08-13,279370.0,3,2.0,1360,8100,2.0,NO,NO,YES,NONE,Very Good,5 Fair,Electricity,PUBLIC,1360,550,0,360,1911,0,47.30784,-122.208455,11 R Street Southeast, Auburn,Washington,98002,1,55.0,47.3085,-122.208,42.0
91,7588700100,2021-09-14,810000.0,2,1.5,980,4483,2.0,NO,NO,YES,NONE,Average,7 Average,Electricity,PUBLIC,980,0,0,240,1923,1992,47.68814,-122.37756,8044 16th Avenue Northwest, Seattle,Washington,98117,1,86.0,47.688,-122.3775,74.0
92,3362401236,2022-01-21,708888.0,2,1.0,650,3780,1.0,NO,NO,YES,AVERAGE,Poor,5 Fair,Electricity,PUBLIC,650,0,0,0,1937,0,47.6813,-122.34727,758 North 72nd Street, Seattle,Washington,98103,1,89.0,47.682,-122.3475,89.0
93,721069063,2021-06-21,742000.0,4,3.0,2190,40500,1.0,NO,NO,NO,NONE,Very Good,7 Average,Gas,PRIVATE,1250,1250,570,510,1980,0,47.31515,-122.08848,19030 Southeast 320th Street, Kent,Washington,98042,1,2.0,47.3145,-122.088,26.0
94,4443801280,2021-07-06,800000.0,4,2.0,1650,3880,1.5,NO,NO,NO,NONE,Good,7 Average,Gas,PUBLIC,1400,950,0,0,1913,0,47.6836,-122.39052,7514 27th Avenue Northwest, Seattle,Washington,98117,1,62.0,47.6835,-122.391,77.0
95,8682280290,2021-07-02,825000.0,2,2.0,1510,3767,1.0,NO,YES,NO,NONE,Average,8 Good,Gas,PUBLIC,1510,0,480,430,2006,0,47.70288,-122.014545,24322 NE Vine Maple Way, Redmond,Washington,98053,1,27.0,47.703,-122.0145,15.0
96,2749600270,2021-12-20,850000.0,4,2.0,1740,5760,2.0,NO,NO,NO,NONE,Fair,7 Average,Gas,PUBLIC,1740,0,0,130,1949,0,47.65155,-122.36918,3433 9th Avenue West, Seattle,Washington,98119,1,64.0,47.652,-122.3685,76.0
97,424049012,2021-07-21,725000.0,4,3.5,1630,1717,3.0,NO,NO,NO,NONE,Average,8 Good,Gas,PUBLIC,1390,500,260,0,2009,0,47.595175,-122.296265,820 28th Avenue South, Seattle,Washington,98144,1,73.0,47.595,-122.2965,79.0
98,1023069037,2021-09-21,825000.0,3,2.0,2160,38252,1.5,NO,NO,YES,NONE,Average,6 Low Average,Electricity,PRIVATE,1510,650,0,80,1908,1990,47.4878,-122.02526,12720 Issaquah Hobart Road Southeast, Issaquah,Washington,98027,1,8.0,47.4885,-122.025,22.0
99,3422059231,2021-07-16,700000.0,5,2.5,2640,7882,2.0,NO,NO,NO,NONE,Average,8 Good,Gas,PUBLIC,2640,0,600,160,2002,0,47.34797,-122.15041,28305 143rd Place Southeast, Kent,Washington,98042,1,15.0,47.3475,-122.151,28.0
100,1788800020,2021-08-04,440000.0,2,1.5,940,8653,1.0,NO,NO,NO,NONE,Good,6 Low Average,Gas,PUBLIC,940,0,620,100,1959,0,47.32947,-122.34431,633 Southwest 304th Street, Federal Way,Washington,98023,1,22.0,47.3295,-122.3445,37.0
101,7787920190,2022-04-14,1300000.0,5,2.5,3220,9090,2.0,NO,NO,NO,NONE,Average,8 Good,Gas,PUBLIC,3220,0,460,200,2006,0,47.72702,-121.95701,14122 284th Place Northeast, Duvall,Washington,98019,1,20.0,47.727,-121.9575,28.0
102,6790850720,2021-06-14,1350000.0,4,2.5,3040,3834,2.0,NO,NO,NO,NONE,Average,9 Better,Gas,PUBLIC,3040,0,430,220,2016,0,47.53979,-122.01352,1016 Pine Crest Circle Northeast, Issaquah,Washington,98029,1,59.0,47.5395,-122.013,33.0
103,625049176,2022-04-18,1500000.0,3,3.0,2070,3224,2.0,NO,NO,NO,NONE,Average,7 Average,Gas,PUBLIC,1290,780,0,60,1926,2004,47.68011,-122.350475,549 North 71st Street, Seattle,Washington,98103,1,88.0,47.6805,-122.3505,93.0
104,3052700708,2021-11-24,830000.0,3,2.0,1350,667,3.0,NO,NO,YES,NONE,Average,8 Good,Electricity,PUBLIC,970,380,0,520,2019,0,47.67795,-122.37326000000002,1304 Northwest 67th Street, Seattle,Washington,98117,1,88.0,47.6775,-122.373,83.0
105,6430500323,2021-08-04,620000.0,2,1.0,770,6300,1.0,NO,NO,YES,NONE,Good,5 Fair,Oil,PUBLIC,770,0,0,120,1946,0,47.69004,-122.35096,536 North 84th Street, Seattle,Washington,98103,1,93.0,47.6895,-122.3505,89.0
106,5676000053,2021-11-03,599000.0,3,2.5,1260,1267,2.0,NO,NO,YES,NONE,Average,7 Average,Gas,PUBLIC,1060,530,330,0,2007,0,47.69027,-122.34363,1117 North 85th Street, Seattle,Washington,98103,1,84.0,47.691,-122.343,78.0
107,7849200460,2021-08-05,575000.0,2,1.0,1010,10000,1.0,YES,NO,NO,NONE,Good,6 Low Average,Oil,PUBLIC,1010,0,0,0,1900,0,47.53056,-121.82622,7830 Railroad Avenue Southeast, Snoqualmie,Washington,98065,1,69.0,47.5305,-121.8255,45.0
108,1822500100,2021-10-11,800000.0,4,3.0,3171,8415,2.0,NO,NO,NO,NONE,Good,8 Good,Gas,PUBLIC,3171,0,571,510,2008,0,47.280155,-122.29562,35849 30th Avenue South, Federal Way,Washington,98003,1,14.0,47.28,-122.295,28.0
109,2120069064,2021-09-07,800000.0,3,2.0,2150,66211,1.0,NO,NO,NO,AVERAGE,Good,7 Average,Gas,PRIVATE,2150,0,570,0,1968,0,47.20252,-122.039625,22609 Southeast 444th Street, Enumclaw,Washington,98022,1,9.0,47.202,-122.04,26.0
110,8141500090,2021-10-11,1265000.0,1,1.0,1020,13735,1.5,NO,NO,NO,NONE,Average,7 Average,Gas,PRIVATE,1020,0,370,0,1999,0,47.764025,-122.15939,13525 Northeast 188th Place, Woodinville,Washington,98072,1,27.0,47.7645,-122.16,48.0
111,7399301200,2022-03-29,728000.0,4,2.0,2170,7520,1.0,NO,NO,NO,NONE,Average,7 Average,Gas,PUBLIC,1240,1240,490,60,1973,0,47.46393,-122.18974,1814 Aberdeen Avenue Southeast, Renton,Washington,98055,1,23.0,47.4645,-122.19,21.0
112,3751602968,2021-09-07,725000.0,3,2.5,2110,23060,2.0,NO,NO,YES,NONE,Average,8 Good,Gas,PRIVATE,2110,0,570,40,1992,0,47.28116,-122.27446,4642 South 358th Street, Auburn,Washington,98001,1,9.0,47.2815,-122.274,28.0
113,6933600190,2021-11-02,935000.0,4,2.5,2110,5040,1.0,NO,NO,NO,AVERAGE,Average,7 Average,Gas,PUBLIC,1110,1110,0,180,1960,0,47.64958,-122.38942,3236 26th Avenue West, Seattle,Washington,98199,1,61.0,47.649,-122.3895,50.0
114,8651410330,2021-07-30,410000.0,3,1.0,920,4770,1.0,NO,NO,NO,NONE,Very Good,6 Low Average,Gas,PUBLIC,920,0,400,0,1969,0,47.36535,-122.08225,19406 Southeast 265th Street, Covington,Washington,98042,1,14.0,47.3655,-122.082,32.0
115,7452500320,2021-11-19,750000.0,3,2.0,1350,5250,1.0,NO,NO,NO,NONE,Average,7 Average,Electricity,PUBLIC,1350,0,0,130,1951,2019,47.52022,-122.37268,9237 31st Place Southwest, Seattle,Washington,98126,1,77.0,47.52,-122.373,53.0
116,5589300045,2021-11-26,482000.0,1,1.0,480,8874,1.0,NO,NO,NO,NONE,Average,5 Fair,Electricity,PUBLIC,480,0,180,0,1945,0,47.753285,-122.311755,1538 Northeast 171st Street, Shoreline,Washington,98155,1,70.0,47.754,-122.3115,50.0
117,2023069067,2021-10-29,900000.0,3,2.0,1960,243936,1.5,NO,NO,YES,NONE,Very Good,7 Average,Electricity,PRIVATE,1960,0,480,0,1987,0,47.46145,-122.06005,21012 Southeast 159th Street, Renton,Washington,98059,1,2.0,47.4615,-122.0595,19.0
118,5425700191,2021-12-15,3000000.0,3,1.5,2040,14284,1.0,NO,NO,NO,NONE,Good,7 Average,Oil,PUBLIC,2040,0,400,0,1952,0,47.63302,-122.23257,2539 82nd Avenue Northeast, Medina,Washington,98039,1,21.0,47.6325,-122.232,44.0
119,1217000225,2021-07-19,610000.0,2,1.0,1250,10800,1.0,NO,NO,NO,NONE,Average,6 Low Average,Oil,PUBLIC,1250,0,0,0,1947,0,47.45553,-122.34818500000002,16416 11th Avenue Southwest, Burien,Washington,98166,1,36.0,47.4555,-122.3475,12.0
120,7328600160,2021-07-19,665250.0,4,2.5,2470,7988,2.0,NO,NO,NO,NONE,Average,9 Better,Gas,PUBLIC,2470,0,730,95,2005,0,47.329405,-122.20891,9987 Southeast 304th Court, Auburn,Washington,98092,1,14.0,47.3295,-122.2095,59.0
121,2473460270,2022-04-05,765000.0,3,2.0,1360,8085,1.0,NO,NO,NO,NONE,Average,8 Good,Gas,PUBLIC,1360,0,510,0,1977,0,47.44646,-122.12405,16206 Southeast 174th Street, Renton,Washington,98058,1,6.0,47.4465,-122.124,34.0
122,8016200220,2022-03-25,665000.0,3,2.0,1890,7366,1.0,NO,NO,NO,NONE,Average,8 Good,Gas,PUBLIC,1890,0,440,0,1991,0,47.36573,-122.16645,26261 131st Place Southeast, Kent,Washington,98030,1,48.0,47.3655,-122.166,42.0
123,7298010090,2022-02-14,855000.0,3,2.5,3340,10426,2.0,NO,NO,NO,NONE,Good,9 Better,Gas,PUBLIC,3340,0,780,390,1986,0,47.30521,-122.34204,528 Southwest 332nd Court, Federal Way,Washington,98023,1,36.0,47.3055,-122.3415,59.0
124,2473251420,2022-05-09,725000.0,3,1.5,1440,12546,1.0,NO,NO,YES,NONE,Good,7 Average,Gas,PUBLIC,1440,0,550,0,1968,0,47.45587,-122.15504,13900 Southeast Fairwood Boulevard, Renton,Washington,98058,1,36.0,47.4555,-122.1555,33.0
125,8807810830,2021-10-22,845000.0,4,2.0,1400,14880,1.0,NO,NO,NO,NONE,Very Good,6 Low Average,Electricity,PRIVATE,1400,0,0,0,1970,0,47.66208,-122.05674,21210 Northeast 61st Street, Redmond,Washington,98053,1,7.0,47.6625,-122.0565,8.0
126,3387800080,2021-07-12,505000.0,3,1.0,1270,7700,1.0,NO,NO,NO,NONE,Good,7 Average,Gas,PUBLIC,1270,0,290,590,1959,0,47.39689,-122.20043,10524 Southeast 229th Place, Kent,Washington,98031,1,45.0,47.397,-122.2005,40.0
127,9320700160,2021-07-30,426000.0,3,2.0,1120,10127,1.0,NO,NO,NO,NONE,Good,7 Average,Gas,PUBLIC,1120,0,680,220,1968,0,47.411795,-122.212175,9548 South 213th Street, Kent,Washington,98031,1,19.0,47.412,-122.2125,13.0
128,5101408703,2022-05-24,1003000.0,4,2.0,1560,6380,1.0,NO,NO,NO,NONE,Average,7 Average,Oil,PUBLIC,860,860,220,250,1942,0,47.703325,-122.315675,1048 Northeast 103rd Street, Seattle,Washington,98125,1,69.0,47.703,-122.316,69.0
129,7560100210,2021-06-22,740527.0,4,5.5,2855,6788,2.5,NO,NO,NO,NONE,Average,8 Good,Gas,PUBLIC,2855,0,420,160,2021,0,47.35859,-122.17755,12230 Southeast 271st Place, Kent,Washington,98030,1,31.0,47.358,-122.178,42.0
130,5317100105,2022-02-16,4424080.0,4,3.5,2940,7200,2.0,NO,NO,NO,NONE,Average,9 Better,Gas,PUBLIC,2940,700,0,100,1925,0,47.62907,-122.280365,1115 41st Avenue East, Seattle,Washington,98112,1,61.0,47.6295,-122.28,57.0
131,9413900071,2021-08-04,2875000.0,3,4.5,5450,20289,1.0,NO,NO,NO,AVERAGE,Good,9 Better,Gas,PUBLIC,2950,2960,720,840,1962,0,47.652365,-122.200315,10501 Northeast 47th Place, Kirkland,Washington,98033,1,18.0,47.652,-122.2005,25.0
132,2144800385,2022-04-14,772000.0,3,2.0,1330,14600,1.5,NO,NO,YES,NONE,Very Good,6 Low Average,Electricity,PRIVATE,1330,1020,0,120,1946,0,47.48663,-122.23707,7620 South Langston Road, Seattle,Washington,98178,1,45.0,47.487,-122.2365,26.0
133,3845100580,2021-06-23,750000.0,4,2.5,2430,3977,2.0,NO,NO,NO,NONE,Average,9 Better,Gas,PUBLIC,2430,0,560,190,2016,0,47.26034,-122.1929,2807 55th Street Southeast, Auburn,Washington,98092,1,2.0,47.2605,-122.193,17.0
134,3204940090,2021-08-18,1527000.0,4,3.5,2640,8503,2.0,NO,NO,NO,NONE,Average,9 Better,Gas,PUBLIC,2640,0,480,80,2017,0,47.53361500000001,-122.16997,12696 Southeast 77th Court, Newcastle,Washington,98056,1,53.0,47.5335,-122.1705,21.0
135,3990200023,2021-11-13,480000.0,1,1.0,580,8087,1.0,NO,NO,NO,NONE,Very Good,6 Low Average,Electricity,PUBLIC,580,0,290,100,1976,0,47.46099,-122.351775,1305 Southwest 158th Street, Burien,Washington,98166,1,57.0,47.4615,-122.352,38.0
136,3630120600,2021-11-10,1525000.0,3,2.5,2290,4389,2.0,NO,NO,NO,NONE,Average,9 Better,Gas,PUBLIC,2290,0,490,330,2006,0,47.55529,-122.002615,2023 Northeast Newton Lane, Issaquah,Washington,98029,1,18.0,47.556,-122.0025,40.0
137,5094400011,2022-01-20,755000.0,6,5.0,2632,12721,2.0,NO,NO,NO,NONE,Average,6 Low Average,Gas,PUBLIC,2632,0,528,80,2007,0,47.32746,-122.21804,936 24th Street Northeast, Auburn,Washington,98002,1,71.0,47.328,-122.2185,77.0
138,6056110560,2021-10-14,945000.0,4,2.5,1850,3076,2.5,NO,NO,NO,NONE,Average,8 Good,Gas,PUBLIC,1850,0,0,0,2013,0,47.56412,-122.29265,4409 Renton Avenue South, Seattle,Washington,98108,1,86.0,47.5635,-122.292,63.0
139,2883200120,2022-01-04,2390000.0,8,5.0,5410,6124,3.0,NO,NO,YES,GOOD,Average,9 Better,Gas,PUBLIC,5410,600,0,210,1908,1998,47.6826,-122.328575,7438 East Green Lake Drive North, Seattle,Washington,98115,1,89.0,47.682,-122.328,96.0
140,1651600020,2021-09-07,6438000.0,5,4.5,6110,21562,2.0,NO,NO,NO,NONE,Average,10 Very Good,Gas,PUBLIC,6110,0,800,580,2020,0,47.63523,-122.221695,2659 90th Avenue Northeast, Clyde Hill,Washington,98004,1,22.0,47.6355,-122.2215,37.0
141,2310000120,2021-06-23,597388.0,3,2.5,1590,7316,1.0,NO,YES,NO,NONE,Average,7 Average,Gas,PUBLIC,1200,700,440,120,1990,0,47.356245,-122.040815,27409 226th Avenue Southeast, Maple Valley,Washington,98038,1,10.0,47.3565,-122.0415,16.0
142,3902300500,2021-06-25,1550000.0,3,3.0,2350,8500,1.0,NO,NO,NO,NONE,Average,8 Good,Gas,PUBLIC,1470,1380,500,600,1980,2007,47.69202,-122.18536,11628 Northeast 102nd Place, Kirkland,Washington,98033,1,32.0,47.6925,-122.1855,26.0
143,2291400343,2021-09-12,539000.0,3,2.5,1290,1160,2.0,NO,NO,YES,NONE,Average,7 Average,Gas,PUBLIC,1100,460,270,40,2007,0,47.70514,-122.34516,1002A N 105th St, Seattle,Washington,98133,1,86.0,47.7045,-122.3445,70.0
144,3459400430,2022-03-07,2650000.0,3,2.5,3870,10095,2.0,NO,NO,NO,AVERAGE,Good,9 Better,Gas,PUBLIC,3870,0,550,740,1973,0,47.566965,-122.135072,15314 Southeast 44th Place, Bellevue,Washington,98006,1,19.0,47.5665,-122.1345,17.0
145,3034200190,2021-06-25,1395000.0,4,2.0,3320,23940,1.0,NO,NO,NO,AVERAGE,Average,8 Good,Gas,PUBLIC,1710,1610,440,210,1947,0,47.72119,-122.33135,12583 Corliss Avenue North, Seattle,Washington,98133,1,47.0,47.721,-122.331,60.0
146,3897100105,2021-08-23,939000.0,3,1.0,1450,6600,1.0,NO,NO,NO,NONE,Good,7 Average,Gas,PUBLIC,1050,1010,530,340,1976,0,47.6713,-122.184565,11624 Northeast 74th Street, Kirkland,Washington,98033,1,41.0,47.6715,-122.184,48.0
147,3575300928,2022-02-03,3100000.0,4,2.5,4540,22750,2.0,NO,NO,NO,GOOD,Average,11 Excellent,Gas,PRIVATE,4540,0,770,380,1990,0,47.622405,-122.06693,1520 204th Avenue Northeast, Sammamish,Washington,98074,1,2.0,47.622,-122.067,24.0
148,4006000502,2021-10-27,700000.0,6,3.5,1810,8519,1.0,NO,NO,YES,NONE,Good,7 Average,Gas,PUBLIC,1080,1040,310,70,1965,0,47.52591,-122.28553,3707 South Cloverdale Street, Seattle,Washington,98118,1,48.0,47.526,-122.286,43.0
149,9550203750,2021-08-05,911500.0,3,2.0,1670,3825,1.5,NO,NO,NO,NONE,Average,7 Average,Electricity,PUBLIC,1140,530,0,0,1923,0,47.66667,-122.32655,146 Northeast 52nd Street, Seattle,Washington,98105,1,82.0,47.667,-122.3265,88.0
150,9455200391,2022-06-02,1270000.0,5,3.0,2570,7800,1.0,NO,NO,NO,NONE,Average,8 Good,Gas,PUBLIC,2050,1110,590,120,1975,0,47.70268,-122.28643,3903 Northeast 103rd Street, Seattle,Washington,98125,1,33.0,47.703,-122.286,42.0
151,2781260620,2022-03-25,899950.0,4,2.5,2760,7723,2.0,NO,NO,NO,NONE,Average,9 Better,Gas,PUBLIC,2760,0,580,30,2005,0,47.348015,-122.026905,28313 236th Place Southeast, Maple Valley,Washington,98038,1,12.0,47.3475,-122.0265,33.0
152,1930300726,2021-09-27,1475000.0,4,2.5,2350,3040,2.0,NO,NO,YES,AVERAGE,Average,8 Good,Gas,PUBLIC,1760,830,460,310,1989,0,47.65725,-122.35287,4119 Dayton Avenue North, Seattle,Washington,98103,1,78.0,47.6565,-122.3535,74.0
153,4113800240,2022-04-25,2520000.0,4,2.5,4170,19533,2.0,NO,YES,NO,NONE,Very Good,10 Very Good,Gas,PUBLIC,2730,1440,710,580,1993,0,47.533515,-122.180834,7639 120th Place Southeast, Newcastle,Washington,98056,1,16.0,47.5335,-122.181,12.0
154,943100398,2022-03-25,475000.0,3,1.5,1170,10000,1.0,NO,NO,NO,NONE,Average,7 Average,Electricity,PRIVATE,1170,0,440,0,1968,0,47.56548,-121.8984,33128 Southeast 44th Street, Fall City,Washington,98024,1,40.0,47.565,-121.899,35.0
155,3995700535,2021-11-05,1525000.0,4,2.5,3250,8170,2.0,NO,NO,NO,NONE,Average,9 Better,Gas,PUBLIC,3250,0,670,290,2015,0,47.73808,-122.3004,15022 26th Avenue Northeast, Shoreline,Washington,98155,1,43.0,47.7375,-122.301,59.0
156,3303950900,2021-06-12,700000.0,4,2.5,1940,8501,2.0,NO,NO,NO,NONE,Average,8 Good,Gas,PUBLIC,1940,0,640,0,1994,0,47.38173,-122.03219,23117 Southeast 246th Place, Maple Valley,Washington,98038,1,37.0,47.382,-122.0325,31.0
157,9834200555,2021-07-20,1350000.0,4,3.5,3090,4060,2.0,NO,NO,NO,AVERAGE,Average,9 Better,Gas,PUBLIC,2420,670,520,440,1992,0,47.57329,-122.286975,3315 37th Place South, Seattle,Washington,98144,1,64.0,47.574,-122.2875,63.0
158,104501050,2021-08-11,460000.0,3,2.0,1130,8012,2.0,NO,NO,NO,NONE,Good,7 Average,Electricity,PUBLIC,1130,0,480,80,1983,0,47.3129,-122.35422,32211 14th Avenue Southwest, Federal Way,Washington,98023,1,23.0,47.313,-122.3535,40.0
159,856000595,2021-07-08,3730000.0,4,4.5,4820,10800,2.0,NO,NO,NO,NONE,Average,11 Excellent,Gas,PUBLIC,4820,0,850,0,2006,0,40.761325,-74.03902,626 13th Street, Union City,New,Jersey,1,94.0,40.761,-74.0385,48.0
160,6385600015,2021-11-18,790000.0,3,1.5,1420,13240,1.0,NO,NO,NO,NONE,Good,7 Average,Oil,PUBLIC,1420,1060,0,450,1958,0,47.48527,-122.35487,13108 16th Avenue Southwest, Burien,Washington,98146,1,46.0,47.4855,-122.355,16.0
161,8965520360,2021-09-03,3050000.0,4,3.5,3460,13520,1.0,NO,YES,NO,EXCELLENT,Very Good,11 Excellent,Gas,PUBLIC,1960,1500,620,730,1985,0,47.564505,-122.10476,4544 177th Avenue Southeast, Bellevue,Washington,98006,1,7.0,47.565,-122.1045,18.0
162,3345700225,2021-07-08,1465000.0,4,3.5,3250,58160,2.0,NO,NO,NO,NONE,Good,8 Good,Electricity,PRIVATE,3250,0,550,150,1985,0,47.52438,-122.19515,3635 Lincoln Avenue Northeast, Renton,Washington,98056,1,19.0,47.5245,-122.1945,13.0
163,6335000035,2021-09-15,650000.0,2,1.0,1100,7120,1.0,NO,NO,NO,NONE,Average,7 Average,Oil,PUBLIC,1100,0,0,80,1951,0,47.70585,-122.28375,10541 41st Place Northeast, Seattle,Washington,98125,1,30.0,47.706,-122.283,60.0
164,522079027,2021-07-17,990000.0,3,3.0,1730,38884,1.0,NO,NO,NO,NONE,Good,8 Good,Electricity,PRIVATE,1730,0,1180,0,1997,0,47.4164,-121.95056,29448 Southeast 208th Street, Maple Valley,Washington,98038,1,1.0,47.4165,-121.95,25.0
165,8563300025,2022-04-15,630000.0,3,1.5,1460,8400,1.0,NO,NO,NO,NONE,Average,7 Average,Gas,PUBLIC,1120,1120,260,0,1957,0,47.76497,-122.33676,18561 Burke Avenue North, Shoreline,Washington,98133,1,53.0,47.7645,-122.337,69.0
166,8823900450,2021-08-26,1325000.0,5,3.0,2470,4320,2.0,NO,NO,NO,NONE,Average,7 Average,Gas,PUBLIC,1870,750,0,0,1908,0,47.6677,-122.3091,5244 17th Avenue Northeast, Seattle,Washington,98105,1,93.0,47.667,-122.3085,91.0
167,5418500140,2022-02-24,1610000.0,4,2.0,1830,12309,1.0,NO,NO,NO,NONE,Good,8 Good,Gas,PUBLIC,1830,0,460,0,1970,0,47.70153,-122.28239,9860 43rd Place Northeast, Seattle,Washington,98115,1,21.0,47.7015,-122.283,41.0
168,1232001680,2021-07-09,1390000.0,3,2.5,1590,3840,2.0,NO,NO,NO,NONE,Good,8 Good,Gas,PUBLIC,1590,160,0,0,1940,0,47.68457,-122.37925,7547 17th Avenue Northwest, Seattle,Washington,98117,1,85.0,47.685,-122.379,78.0
169,8827900820,2021-10-27,860000.0,2,1.0,830,4480,1.0,NO,NO,NO,NONE,Average,6 Low Average,Oil,PUBLIC,830,390,0,240,1914,0,47.66975,-122.294175,5541 31st Avenue Northeast, Seattle,Washington,98105,1,75.0,47.67,-122.2935,80.0
170,7518505180,2022-04-05,1921000.0,3,2.5,2910,3400,2.0,NO,NO,NO,NONE,Very Good,8 Good,Gas,PUBLIC,1920,990,0,620,1908,0,47.67758,-122.38247,6559 20th Avenue Northwest, Seattle,Washington,98117,1,84.0,47.6775,-122.382,94.0
171,8820902000,2021-09-02,1357500.0,5,3.0,3470,10112,2.0,NO,NO,NO,AVERAGE,Good,8 Good,Electricity,PUBLIC,2190,1280,0,620,1947,1979,47.7163,-122.28101,11941 Lakeside Avenue Northeast, Seattle,Washington,98125,1,36.0,47.7165,-122.2815,50.0
172,1336300219,2022-02-09,759900.0,2,2.0,960,591,3.0,NO,NO,YES,NONE,Average,8 Good,Gas,PUBLIC,960,0,0,240,2021,0,40.719455,-73.371935,11th Avenue, West Babylon,New,York,1,54.0,40.719,-73.3725,44.0
173,1939120360,2022-06-01,1885000.0,3,2.5,2420,8464,2.0,NO,NO,NO,NONE,Good,9 Better,Gas,PUBLIC,2420,0,560,110,1989,0,47.62706,-122.02453,1903 236th Ave NE, Sammamish,Washington,98074,1,10.0,47.6265,-122.025,37.0
174,192460390,2021-09-22,600000.0,3,1.5,1140,19383,1.0,NO,NO,YES,NONE,Average,7 Average,Electricity,PRIVATE,1140,0,340,0,1986,0,47.47753,-121.75788,43607 Southeast 136th Street, North Bend,Washington,98045,1,22.0,47.478,-121.758,32.0
175,6144000040,2021-06-16,471513.0,3,2.5,2060,12679,1.0,NO,NO,NO,NONE,Good,7 Average,Electricity,PRIVATE,1410,1530,500,230,1970,0,47.31014,-122.28317,3924 South 325th Place, Federal Way,Washington,98001,1,17.0,47.31,-122.283,34.0
176,255460110,2021-07-16,840000.0,3,2.5,2370,4200,2.0,NO,NO,NO,NONE,Average,8 Good,Gas,PUBLIC,2370,0,420,140,2015,0,47.37031500000001,-122.017825,24212 Southeast 258th Way, Maple Valley,Washington,98038,1,37.0,47.37,-122.0175,44.0
177,8682281610,2022-03-10,1360000.0,2,2.0,1680,4624,1.0,NO,YES,NO,NONE,Average,8 Good,Gas,PUBLIC,1680,0,440,200,2006,0,47.70887000000001,-122.01673999999998,12367 Adair Creek Way Northeast, Redmond,Washington,98053,1,4.0,47.709,-122.016,35.0
178,9526550050,2021-08-22,1535000.0,4,3.5,2990,4234,2.0,NO,NO,NO,NONE,Average,8 Good,Gas,PUBLIC,2460,1090,560,230,2013,0,47.70993,-122.120225,12250 164th Court Northeast, Redmond,Washington,98052,1,5.0,47.7105,-122.1195,15.0
179,1136100167,2022-03-10,1900000.0,3,2.5,2180,52272,2.0,NO,NO,NO,NONE,Average,9 Better,Gas,PRIVATE,2180,0,730,120,1998,0,47.74613,-122.13567,16329 154th Avenue Northeast, Woodinville,Washington,98072,1,6.0,47.7465,-122.136,16.0
180,4127000385,2021-08-31,1133000.0,3,2.5,2520,29183,1.0,NO,NO,NO,AVERAGE,Average,9 Better,Gas,PUBLIC,2520,0,830,650,1995,0,47.369705,-122.033435,23033 Southeast Lake Wilderness Drive South, Maple Valley,Washington,98038,1,20.0,47.37,-122.034,35.0
181,9103000296,2022-02-25,1400000.0,3,2.0,1500,3760,1.5,NO,NO,NO,NONE,Average,7 Average,Gas,PUBLIC,1500,950,200,0,1926,0,47.61896,-122.28861,3412 East Florence Court, Seattle,Washington,98112,1,77.0,47.619,-122.289,69.0
182,8815400665,2021-07-14,895000.0,3,1.5,1820,6000,1.0,NO,NO,NO,NONE,Good,8 Good,Gas,PUBLIC,1140,680,0,410,1938,0,47.674805,-122.28947,6227 36th Avenue Northeast, Seattle,Washington,98115,1,77.0,47.6745,-122.289,70.0
183,1545808260,2022-01-25,640000.0,3,2.0,1700,8100,1.0,NO,NO,NO,NONE,Average,7 Average,Electricity,PUBLIC,1200,1100,600,100,1980,0,47.36044,-122.046335,22042 Southeast 269th Place, Maple Valley,Washington,98038,1,28.0,47.361,-122.046,17.0
184,562000020,2022-01-14,408000.0,3,1.5,1260,8548,1.0,NO,NO,NO,NONE,Good,7 Average,Gas,PRIVATE,1260,0,340,80,1968,0,47.28584,-122.20957,1409 26th Street Southeast, Auburn,Washington,98002,1,38.0,47.286,-122.2095,56.0
185,6600240050,2021-09-23,630000.0,3,2.5,1860,6248,2.0,NO,NO,NO,NONE,Average,8 Good,Gas,PUBLIC,1860,0,530,222,2000,0,47.37446,-122.17841,25325 122nd Place Southeast, Kent,Washington,98030,1,16.0,47.3745,-122.178,36.0
186,3862710170,2021-10-21,765000.0,3,2.0,1740,4459,2.0,NO,NO,NO,NONE,Average,8 Good,Gas,PUBLIC,1740,0,440,40,2015,0,47.534255,-121.8411,37512 Fury Street, Snoqualmie,Washington,98065,1,23.0,47.535,-121.8405,44.0
187,7937600340,2021-06-16,750000.0,3,2.0,2640,60822,1.0,YES,NO,NO,NONE,Good,7 Average,Oil,PRIVATE,1570,1070,530,570,1955,0,47.43414,-122.08405,18715 East Spring Lake Drive Southeast, Renton,Washington,98058,1,0.0,47.4345,-122.0835,
188,9358001265,2021-08-10,541500.0,2,1.5,1400,2550,1.5,NO,NO,NO,NONE,Average,7 Average,Gas,PUBLIC,950,560,0,110,1915,0,47.56668,-122.36868,2811 Southwest Dakota Street, Seattle,Washington,98126,1,77.0,47.5665,-122.3685,81.0
189,2171400174,2022-02-07,770000.0,4,3.0,2530,9976,1.0,NO,NO,YES,NONE,Good,8 Good,Gas,PRIVATE,1450,1400,500,200,1972,0,47.492275,-122.25468,12270 Beacon Avenue South, Seattle,Washington,98178,1,42.0,47.493,-122.2545,21.0
190,2619920040,2021-12-16,1900000.0,4,2.5,3150,4080,2.0,NO,NO,NO,NONE,Average,9 Better,Gas,PUBLIC,3150,0,650,140,2002,0,47.687721,-122.175985,13322 Northeast 97th Street, Kirkland,Washington,98033,1,45.0,47.688,-122.1765,54.0
191,5249802390,2022-03-03,274380.0,2,1.0,1440,4000,1.0,NO,NO,NO,NONE,Average,6 Low Average,Gas,PUBLIC,720,720,0,160,1920,2011,47.56161,-122.27551,4601 South Snoqualmie Street, Seattle,Washington,98118,1,46.0,47.562,-122.2755,65.0
192,5422560040,2021-11-05,980000.0,3,2.0,1640,8971,1.0,NO,NO,NO,NONE,Average,8 Good,Gas,PUBLIC,1640,0,440,220,1977,0,47.663455,-122.132162,6405 156th Place Northeast, Redmond,Washington,98052,1,15.0,47.664,-122.1315,48.0
193,5647900050,2021-09-10,450000.0,3,2.5,1910,8768,1.0,NO,NO,NO,NONE,Very Good,7 Average,Gas,PUBLIC,1280,1200,570,130,1980,0,47.32775,-122.2601,2221 W Street Northwest, Auburn,Washington,98001,1,1.0,47.328,-122.2605,21.0
194,3204810050,2022-03-09,1750970.0,4,3.5,3420,7552,2.0,NO,NO,NO,NONE,Average,9 Better,Gas,PUBLIC,2970,980,530,400,2021,0,47.53214000000001,-122.18984,7932 112th Ln SE, Newcastle,Washington,98056,1,33.0,47.532,-122.19,30.0
195,3319502178,2021-11-01,782000.0,3,3.5,1440,2041,2.0,NO,NO,NO,NONE,Average,7 Average,Gas,PUBLIC,1200,440,200,0,2006,0,47.59732,-122.310205,1629 South Weller Street, Seattle,Washington,98144,1,94.0,47.598,-122.31,69.0
196,7169500100,2022-02-22,929000.0,2,2.5,1470,1099,2.0,NO,NO,NO,NONE,Average,8 Good,Gas,PUBLIC,1340,630,500,30,2005,0,41.15319,-95.94868,South 25th Avenue, Bellevue,Nebraska,68123,1,26.0,41.1525,-95.949,23.0
197,7549801470,2021-06-10,1099700.0,4,2.5,2220,3360,2.0,NO,NO,NO,NONE,Average,9 Better,Electricity,PUBLIC,2220,0,390,670,2018,0,47.55224000000001,-122.31014,5541 18th Avenue South, Seattle,Washington,98108,1,61.0,47.5515,-122.31,50.0
198,2979800050,2021-08-25,950000.0,3,2.0,1400,3798,1.5,NO,NO,YES,NONE,Average,7 Average,Electricity,PUBLIC,1400,1090,0,40,1927,0,47.68596,-122.31305,7732 14th Avenue Northeast, Seattle,Washington,98115,1,84.0,47.6865,-122.313,97.0
199,2420069220,2021-07-09,470000.0,3,1.0,1320,3954,1.5,NO,NO,NO,NONE,Very Good,6 Low Average,Gas,PUBLIC,1320,0,0,0,1912,2014,47.20204,-121.99437,1214 Porter Street, Enumclaw,Washington,98022,1,89.0,47.202,-121.995,55.0
200,5201800200,2021-10-25,750000.0,3,3.0,2500,6820,2.0,NO,NO,NO,NONE,Average,8 Good,Gas,PUBLIC,2500,0,700,50,1995,0,47.40303,-122.16984,12806 Southeast 223rd Place, Kent,Washington,98031,1,12.0,47.403,-122.1705,30.0
201,7789200020,2022-05-24,755000.0,3,1.0,1470,9284,1.0,NO,NO,NO,NONE,Good,7 Average,Gas,PRIVATE,1470,0,590,710,1959,0,47.509645,-122.17093,10418 126th Avenue Southeast, Renton,Washington,98056,1,29.0,47.5095,-122.1705,12.0
202,8873000062,2022-05-24,4885000.0,4,3.5,4130,7655,2.0,NO,NO,NO,EXCELLENT,Very Good,10 Very Good,Gas,PUBLIC,2770,1360,0,530,1925,0,47.630445,-122.35477,119 Tower Place, Seattle,Washington,98109,1,90.0,47.631,-122.355,53.0
203,2954400340,2022-06-02,3950000.0,4,4.0,5520,48787,2.0,NO,YES,NO,NONE,Average,11 Excellent,Gas,PRIVATE,5520,0,1190,130,1997,0,47.66052,-122.07151,20335 Northeast 61st Court, Redmond,Washington,98053,1,4.0,47.661,-122.0715,10.0
204,2473390620,2022-04-19,837000.0,3,2.0,1480,6800,1.0,NO,NO,NO,NONE,Good,7 Average,Gas,PUBLIC,1480,0,460,50,1969,0,47.45881,-122.161725,13247 Southeast 160th Place, Renton,Washington,98058,1,16.0,47.4585,-122.1615,15.0
205,9358001204,2021-09-29,545000.0,2,2.5,1310,1832,2.0,NO,NO,NO,NONE,Average,7 Average,Electricity,PUBLIC,1310,0,230,0,2000,0,47.56635,-122.36533,4105A 26th Ave SW, Seattle,Washington,98106,1,76.0,47.5665,-122.3655,89.0
206,8111100070,2022-01-04,957000.0,4,2.0,1650,3960,1.5,NO,NO,NO,NONE,Good,6 Low Average,Gas,PUBLIC,1250,800,0,0,1928,0,47.58654,-122.29583,1811 29th Avenue South, Seattle,Washington,98144,1,66.0,47.586,-122.2965,63.0
207,1105000058,2021-10-28,599000.0,4,2.0,1510,5013,1.5,NO,NO,NO,NONE,Average,7 Average,Gas,PUBLIC,1510,0,0,120,1905,1994,47.545265,-122.27118,4837 South Graham Street, Seattle,Washington,98118,1,58.0,47.5455,-122.271,53.0
208,8857200130,2021-06-14,685000.0,3,2.5,1600,1196,2.0,NO,NO,NO,NONE,Average,8 Good,Gas,PUBLIC,1350,610,360,140,1967,0,47.61185,-122.115846,239 169th Avenue Northeast, Bellevue,Washington,98008,1,0.0,47.6115,-122.1165,24.0
209,8085400115,2022-03-01,5450000.0,4,3.0,4570,16304,1.0,NO,NO,NO,AVERAGE,Very Good,11 Excellent,Gas,PUBLIC,2500,2070,830,780,1984,0,47.638105,-122.210555,9645 Northeast 31st Street, Clyde Hill,Washington,98004,1,27.0,47.6385,-122.211,33.0
210,2473101520,2022-04-05,800000.0,4,2.5,2200,11250,2.0,NO,NO,NO,NONE,Good,7 Average,Electricity,PUBLIC,2200,0,0,140,1966,0,47.44949,-122.15699,17014 137th Place Southeast, Renton,Washington,98058,1,64.0,47.4495,-122.157,43.0
211,5083100035,2021-10-27,426000.0,3,2.0,1160,13482,1.0,NO,NO,NO,NONE,Very Good,7 Average,Electricity,PUBLIC,1160,0,240,40,1955,0,47.41254,-122.29384,21114 31st Avenue South, SeaTac,Washington,98198,1,51.0,47.412,-122.2935,42.0
212,2883201440,2021-07-29,2615000.0,4,3.5,3760,4000,2.0,NO,NO,NO,NONE,Average,10 Very Good,Gas,PUBLIC,2770,1450,460,810,2013,0,47.68372,-122.32965,7515 Sunnyside Avenue North, Seattle,Washington,98103,1,81.0,47.6835,-122.3295,94.0
213,6149700160,2022-04-20,675000.0,3,1.0,1250,7500,1.0,NO,NO,NO,NONE,Average,7 Average,Oil,PUBLIC,1250,0,0,0,1947,0,47.72921,-122.34274,13717 Stone Avenue North, Seattle,Washington,98133,1,80.0,47.7285,-122.343,78.0
214,6852700115,2022-03-30,1140000.0,4,2.5,1830,2680,2.0,NO,NO,YES,NONE,Average,7 Average,Gas,PUBLIC,1830,870,0,70,1906,0,47.622985,-122.317,433 12th Avenue East, Seattle,Washington,98102,1,92.0,47.6235,-122.3175,83.0
215,3325049068,2022-02-08,845000.0,3,3.0,1590,1071,2.0,NO,NO,YES,NONE,Average,8 Good,Gas,PUBLIC,1250,560,220,0,2005,0,47.617535,-122.302115,1746 23rd Avenue, Seattle,Washington,98122,1,91.0,47.6175,-122.3025,82.0
216,2473411240,2021-11-02,745000.0,3,2.0,1740,7208,1.5,NO,NO,NO,NONE,Good,8 Good,Gas,PUBLIC,1740,0,510,0,1976,0,47.44833,-122.12988,15902 Southeast 172nd Place, Renton,Washington,98058,1,9.0,47.448,-122.13,16.0
217,3856905680,2021-08-31,905000.0,5,3.0,1470,4019,2.0,NO,NO,YES,NONE,Good,7 Average,Gas,PUBLIC,1470,250,0,50,1905,0,47.66873,-122.33129,5444 Kirkwood Place North, Seattle,Washington,98103,1,70.0,47.6685,-122.331,85.0
218,2838000130,2022-02-10,1295000.0,3,2.5,2230,4850,2.0,NO,NO,YES,NONE,Average,8 Good,Electricity,PUBLIC,2230,0,440,120,2014,0,47.72953,-122.33447,13730 Wayne Place North, Seattle,Washington,98133,1,49.0,47.73,-122.334,56.0
219,2085200775,2021-08-17,537500.0,2,2.0,1380,8427,1.5,YES,NO,NO,EXCELLENT,Very Good,7 Average,Electricity,PRIVATE,1120,260,0,570,1927,0,47.39338,-122.02497,23321 Dorre Don Way Southeast, Maple Valley,Washington,98038,1,8.0,47.394,-122.025,46.0
220,7548300310,2021-12-23,750000.0,3,2.0,1220,970,2.0,NO,NO,NO,NONE,Average,8 Good,Gas,PUBLIC,900,320,0,450,2014,0,47.587225,-122.312295,1604 South Grand Street, Seattle,Washington,98144,1,65.0,47.5875,-122.313,90.0
221,3221059053,2022-01-27,635000.0,4,2.5,3400,145872,2.0,NO,NO,YES,NONE,Average,7 Average,Gas,PUBLIC,2610,1290,500,280,1996,0,47.25855,-122.18714,5502 Kersey Way Southeast, Auburn,Washington,98092,1,15.0,47.259,-122.187,9.0
222,2770602361,2021-11-16,1076000.0,3,2.0,2000,2338,2.0,NO,NO,NO,NONE,Average,9 Better,Gas,PUBLIC,1260,740,0,820,2015,0,47.647155,-122.382825,3018 21st Avenue West, Seattle,Washington,98199,1,70.0,47.6475,-122.3835,78.0
223,1312000060,2022-02-15,555000.0,3,1.5,1250,7380,1.0,NO,NO,NO,NONE,Very Good,7 Average,Gas,PUBLIC,1250,0,500,0,1964,0,47.34257,-122.282495,28807 41st Avenue South, Auburn,Washington,98001,1,25.0,47.343,-122.283,31.0
224,723000211,2021-10-21,2845500.0,3,2.5,2790,4550,1.0,NO,NO,NO,FAIR,Very Good,9 Better,Gas,PUBLIC,1450,1400,436,200,1952,0,47.65677,-122.28579,3908 Northeast 38th Street, Seattle,Washington,98105,1,47.0,47.6565,-122.286,64.0
225,3278610360,2021-06-16,805000.0,4,3.0,2120,2246,2.0,NO,NO,NO,NONE,Average,7 Average,Electricity,PUBLIC,1700,660,240,90,2018,0,47.543025,-122.374355,3212 Southwest Holly Street, Seattle,Washington,98126,1,69.0,47.5425,-122.3745,54.0
226,3224089066,2021-11-12,1275000.0,3,2.5,1940,7200,2.0,NO,NO,NO,GOOD,Good,8 Good,Electricity,PUBLIC,1940,0,0,520,1954,1983,47.52402,-121.813065,39550 Southeast Alder Street, Snoqualmie,Washington,98065,1,42.0,47.5245,-121.8135,47.0
227,1726069179,2022-02-01,1360000.0,3,2.0,2410,51763,1.0,NO,NO,NO,NONE,Good,8 Good,Gas,PRIVATE,1410,1340,500,450,1981,0,47.742855,-122.055705,15832 210th Avenue Northeast, Woodinville,Washington,98077,1,1.0,47.7435,-122.055,9.0
228,8651500340,2022-03-11,2300000.0,4,2.5,2370,11343,2.0,NO,NO,NO,NONE,Average,9 Better,Gas,PUBLIC,2370,0,600,90,1984,0,47.64473,-122.0663,3840 206th Place Northeast, Sammamish,Washington,98074,1,9.0,47.6445,-122.067,33.0
229,9899200050,2022-03-24,565000.0,4,2.0,1400,10364,1.5,NO,NO,NO,NONE,Good,6 Low Average,Electricity,PUBLIC,1400,0,330,330,1971,0,47.44845,-122.21243,3426 Shattuck Avenue South, Renton,Washington,98055,1,25.0,47.448,-122.2125,24.0
230,5153200521,2022-01-13,650000.0,3,2.5,2000,15000,1.0,NO,NO,YES,NONE,Average,8 Good,Gas,PRIVATE,1320,1300,620,920,1962,0,47.330735,-122.347475,30150 10th Avenue Southwest, Federal Way,Washington,98023,1,23.0,47.331,-122.3475,29.0
231,9512501290,2021-07-10,1200000.0,3,2.0,1490,8987,1.0,NO,NO,NO,NONE,Average,7 Average,Gas,PUBLIC,1170,580,440,0,1969,0,47.67114,-122.14996,14212 Northeast 74th Street, Redmond,Washington,98052,1,22.0,47.6715,-122.1495,56.0
232,2921700071,2021-08-26,985000.0,3,3.5,2050,1279,3.0,NO,NO,NO,NONE,Average,8 Good,Electricity,PUBLIC,1580,730,260,380,2021,0,47.68954,-122.37358,8324 14th Avenue Northwest, Seattle,Washington,98117,1,82.0,47.6895,-122.373,78.0
233,1972200153,2021-11-08,754950.0,2,2.0,1180,663,2.0,NO,NO,YES,NONE,Average,8 Good,Electricity,PUBLIC,800,380,0,290,2021,0,41.96744,-91.719184,3637 1st Avenue West, Cedar Rapids,Iowa,52405,1,66.0,41.967,-91.719,47.0
234,1776280090,2022-04-19,1065000.0,3,2.5,1840,3357,2.0,NO,NO,NO,AVERAGE,Average,8 Good,Gas,PUBLIC,1840,0,0,80,2019,0,47.490695,-121.77322,721 Northeast 2nd Street, North Bend,Washington,98045,1,28.0,47.49,-121.773,48.0
235,8643000245,2022-03-24,575000.0,3,1.5,1570,10010,1.0,NO,NO,NO,NONE,Average,7 Average,Gas,PUBLIC,1570,0,400,520,1967,0,47.394805,-122.30803,23030 19th Avenue South, Des Moines,Washington,98198,1,29.0,47.3955,-122.3085,37.0
236,5694000788,2021-09-24,868000.0,3,2.5,1320,725,2.0,NO,NO,NO,NONE,Average,8 Good,Electricity,PUBLIC,940,380,0,400,2021,0,42.19695,-70.73227,Linden Avenue, Scituate,Massachusetts,02066,1,49.0,42.1965,-70.7325,42.0
237,5469300470,2021-12-07,566000.0,4,2.0,1540,7140,1.0,NO,YES,NO,NONE,Good,7 Average,Gas,PUBLIC,770,770,700,160,1970,0,47.373255,-122.139715,25513 151st Place Southeast, Covington,Washington,98042,1,11.0,47.373,-122.139,44.0
238,5101408005,2022-06-01,975000.0,5,1.0,1530,7233,1.5,NO,NO,NO,NONE,Average,7 Average,Electricity,PUBLIC,1530,0,0,0,1948,0,47.70471,-122.310005,10423 17th Avenue Northeast, Seattle,Washington,98125,1,19.0,47.7045,-122.31,37.0
239,7588700072,2022-03-03,725000.0,2,2.0,1180,543,3.0,NO,NO,NO,NONE,Average,8 Good,Electricity,PUBLIC,1180,0,0,160,2021,0,40.186045,-105.1251025,16th Avenue, Longmont,Colorado,80501,1,52.0,40.1865,-105.1245,53.0
240,7977201621,2021-08-04,1400000.0,5,3.5,3230,3927,2.0,NO,NO,YES,NONE,Average,8 Good,Gas,PUBLIC,2450,1280,500,220,2007,0,47.686225,-122.290945,7747 35th Avenue Northeast, Seattle,Washington,98115,1,79.0,47.6865,-122.2905,92.0
241,3225069273,2021-10-25,1630000.0,4,2.5,2370,62726,2.0,NO,NO,YES,NONE,Good,9 Better,Electricity,PRIVATE,2370,0,0,260,1979,0,47.60985,-122.06221,121 Louis Thompson Road Northeast, Sammamish,Washington,98074,1,7.0,47.61,-122.0625,24.0
242,5603500105,2022-02-18,1865000.0,3,2.0,2310,11480,1.0,NO,NO,NO,NONE,Average,8 Good,Gas,PUBLIC,2310,0,600,300,1959,0,47.572055,-122.162857,13320 Southeast 42nd Street, Bellevue,Washington,98006,1,70.0,47.5725,-122.163,42.0
243,1226059082,2021-07-06,1850000.0,4,2.5,2940,47916,2.0,NO,NO,NO,NONE,Average,9 Better,Gas,PRIVATE,2940,0,750,820,2008,0,47.74774,-122.11982,16506 164th Avenue Northeast, Woodinville,Washington,98072,1,1.0,47.748,-122.1195,34.0
244,9264910470,2021-11-30,699500.0,6,4.0,4020,9082,2.0,NO,NO,NO,NONE,Good,9 Better,Electricity,PUBLIC,2930,1090,530,420,1981,0,47.306755,-122.339165,32911 3rd Avenue Southwest, Federal Way,Washington,98023,1,45.0,47.307,-122.3385,54.0
245,2807100067,2021-09-23,779950.0,3,3.5,1730,2573,2.0,NO,NO,NO,NONE,Average,8 Good,Gas,PUBLIC,1320,610,200,90,2021,0,34.22267,-118.47857,Densmore Avenue, North Hills,California,91343,1,53.0,34.2225,-118.479,46.0
246,8570900322,2021-06-23,475000.0,2,1.0,750,6022,1.0,NO,NO,YES,NONE,Good,5 Fair,Gas,PUBLIC,750,0,0,0,1925,0,47.49816,-121.78028,614 Ballarat Avenue North, North Bend,Washington,98045,1,67.0,47.4975,-121.7805,61.0
247,3342103985,2021-06-15,4900000.0,1,1.0,570,36944,1.5,YES,NO,NO,EXCELLENT,Very Good,5 Fair,Electricity,PUBLIC,570,0,0,0,1947,0,47.517805,-122.210285,2905 Mountain View Avenue North, Renton,Washington,98056,1,15.0,47.5185,-122.211,47.0
248,8024201555,2021-10-04,690000.0,2,1.0,1090,6409,1.0,NO,NO,NO,NONE,Average,7 Average,Gas,PUBLIC,900,900,240,0,1940,0,47.70055,-122.31468999999998,1202 Northeast 98th Street, Seattle,Washington,98115,1,27.0,47.7,-122.3145,78.0
249,2207100615,2021-10-14,900000.0,3,1.0,1030,10877,1.0,NO,NO,YES,NONE,Good,7 Average,Gas,PUBLIC,1030,0,310,150,1955,0,47.598375,-122.150955,1331 142nd Avenue Southeast, Bellevue,Washington,98007,1,64.0,47.598,-122.151,72.0
250,6383000520,2022-05-24,1500000.0,5,3.0,2800,7323,1.0,NO,NO,NO,NONE,Average,8 Good,Gas,PUBLIC,1920,880,0,0,1964,0,47.69396,-122.385255,2303 Northwest 90th Street, Seattle,Washington,98117,1,63.0,47.694,-122.385,66.0
251,1118500200,2022-05-03,1950000.0,4,2.5,3020,19577,2.0,NO,NO,NO,NONE,Average,10 Very Good,Gas,PRIVATE,3020,0,730,450,1996,0,47.63814,-122.021,23924 Northeast 31st Way, Sammamish,Washington,98074,1,0.0,47.6385,-122.0205,9.0
252,3361400265,2022-02-23,603000.0,3,1.0,1280,19200,1.0,NO,NO,NO,NONE,Average,7 Average,Oil,PRIVATE,1280,1280,0,100,1910,1970,47.502105,-122.317515,11230 12th Avenue South, Burien,Washington,98168,1,47.0,47.502,-122.3175,32.0
253,3592500075,2021-12-10,1750000.0,2,1.5,2210,4479,1.5,NO,NO,YES,NONE,Good,8 Good,Gas,PUBLIC,1810,400,180,40,1923,0,47.634285,-122.29974,1703 26th Avenue East, Seattle,Washington,98112,1,54.0,47.634,-122.2995,74.0
254,2848700487,2021-08-16,629950.0,2,2.0,1160,1306,3.0,NO,NO,YES,NONE,Average,8 Good,Electricity,PUBLIC,1160,0,0,210,2021,0,47.56871,-122.36091,3854 22nd Avenue Southwest, Seattle,Washington,98106,1,65.0,47.568,-122.361,65.0
255,3205000170,2022-02-10,1120000.0,4,2.0,1270,9350,1.0,NO,NO,NO,NONE,Very Good,7 Average,Gas,PUBLIC,1270,0,480,60,1960,0,47.538935,-122.17777,7054 121st Place Southeast, Newcastle,Washington,98056,1,37.0,47.5395,-122.178,41.0
256,8682210520,2022-04-19,1700000.0,2,2.5,2165,6949,1.0,NO,NO,NO,NONE,Average,8 Good,Gas,PUBLIC,2165,0,580,60,2002,0,47.70307,-122.02298,11731 238th Place Northeast, Redmond,Washington,98053,1,48.0,47.703,-122.0235,47.0
257,9422400030,2021-10-05,1300000.0,4,2.0,2050,6000,2.5,NO,NO,YES,FAIR,Average,8 Good,Gas,PUBLIC,2050,1410,0,260,1927,1996,47.573405,-122.413065,3426 63rd Avenue Southwest, Seattle,Washington,98116,1,67.0,47.574,-122.4135,76.0
258,8860300220,2021-10-18,1538000.0,4,3.0,2300,10850,1.0,NO,NO,NO,NONE,Good,8 Good,Gas,PUBLIC,1290,1140,440,0,1975,0,47.68753,-122.12195,9718 163rd Place Northeast, Redmond,Washington,98052,1,22.0,47.688,-122.1225,48.0
259,2026049147,2022-05-12,726750.0,2,2.0,1510,8948,1.0,NO,NO,NO,NONE,Average,7 Average,Oil,PUBLIC,1420,720,340,320,1952,0,47.72371,-122.3177,13014 10th Avenue Northeast, Seattle,Washington,98125,1,25.0,47.724,-122.3175,57.0
260,3278602160,2021-06-30,631520.0,2,3.5,1570,1878,2.0,NO,NO,NO,NONE,Good,7 Average,Gas,PUBLIC,1310,610,350,50,2006,0,47.548115,-122.374185,3207 Southwest Raymond Street, Seattle,Washington,98126,1,65.0,47.5485,-122.3745,66.0
261,7861800440,2022-02-02,950000.0,4,3.5,2820,5728,2.0,NO,NO,YES,AVERAGE,Good,8 Good,Gas,PUBLIC,2151,669,424,304,2012,0,47.41956500000001,-122.220255,20325 90th Place South, Kent,Washington,98031,1,25.0,47.4195,-122.22,7.0
262,7625703095,2022-03-02,1070000.0,2,2.0,1380,6000,1.5,NO,NO,NO,NONE,Good,7 Average,Gas,PUBLIC,1380,950,0,260,1918,0,47.548045,-122.38477,6011 41st Avenue Southwest, Seattle,Washington,98136,1,84.0,47.5485,-122.385,75.0
263,7987400290,2021-09-09,745000.0,3,2.5,2040,2500,2.0,NO,NO,NO,NONE,Average,7 Average,Gas,PUBLIC,1470,570,240,60,2008,0,47.57295,-122.3717,3006 Southwest Hinds Street, Seattle,Washington,98126,1,62.0,47.5725,-122.3715,67.0
264,4321200170,2022-04-27,300000.0,2,1.0,890,5000,1.0,NO,NO,YES,AVERAGE,Average,6 Low Average,Gas,PUBLIC,890,0,0,40,1909,0,47.57407,-122.378475,3253 37th Avenue Southwest, Seattle,Washington,98126,1,68.0,47.574,-122.379,63.0
265,2108500190,2021-10-05,560000.0,3,2.5,1660,7330,2.0,NO,NO,NO,NONE,Average,7 Average,Gas,PUBLIC,1660,0,570,0,1994,0,47.35969,-122.1591,27004 137th Avenue Southeast, Kent,Washington,98042,1,44.0,47.3595,-122.1585,34.0
266,162350100,2022-01-03,940000.0,4,3.5,2470,2192,2.0,NO,NO,NO,NONE,Average,8 Good,Electricity,PUBLIC,1770,700,350,90,2018,0,47.74667,-121.985105,16313 Main View Lane Northeast, Duvall,Washington,98019,1,66.0,47.7465,-121.9845,31.0
267,8143000370,2022-03-01,1380000.0,3,2.0,1520,7200,1.0,NO,NO,NO,NONE,Good,7 Average,Gas,PUBLIC,1010,1010,500,80,1967,0,47.72828,-122.20084,14149 104th Place Northeast, Kirkland,Washington,98034,1,50.0,47.7285,-122.2005,61.0
268,7689600730,2022-03-28,490000.0,2,1.0,730,8235,1.0,NO,NO,NO,NONE,Average,6 Low Average,Oil,PUBLIC,730,0,0,0,1943,0,47.48997,-122.24169,12633 74th Avenue South, Seattle,Washington,98178,1,56.0,47.49,-122.241,21.0
269,3432500605,2021-11-29,727000.0,2,1.0,1320,8295,1.0,NO,NO,NO,NONE,Good,7 Average,Electricity,PUBLIC,1320,0,220,0,1945,0,47.74672,-122.31526,16218 12th Avenue Northeast, Shoreline,Washington,98155,1,43.0,47.7465,-122.316,56.0
270,3205000130,2021-10-15,795000.0,3,2.0,1100,9350,1.0,NO,NO,NO,NONE,Average,7 Average,Gas,PUBLIC,1100,0,500,140,1960,0,47.539875,-122.17775,7022 121st Place Southeast, Newcastle,Washington,98056,1,37.0,47.5395,-122.178,41.0
271,2254501872,2021-10-08,1265700.0,4,4.0,1940,1949,2.0,NO,NO,NO,NONE,Average,10 Very Good,Electricity,PUBLIC,1500,700,260,500,2019,0,47.6098,-122.3114,808B 16th Ave, Seattle,Washington,98122,1,90.0,47.61,-122.3115,88.0
272,3888320080,2021-10-06,925000.0,4,2.5,2080,5487,2.0,NO,NO,NO,NONE,Very Good,8 Good,Gas,PUBLIC,2080,0,420,270,2001,0,47.508505,-122.176835,3135 Northeast 19th Place, Renton,Washington,98056,1,61.0,47.508,-122.1765,46.0
273,7327700100,2022-03-02,2225000.0,10,2.5,5000,435600,2.0,YES,NO,NO,NONE,Good,7 Average,Electricity,PRIVATE,5000,0,360,40,1945,0,47.27446,-122.05584,212th Way Southeast, Enumclaw,Washington,98092,1,2.0,47.274,-122.0565,1.0
274,7327700090,2022-03-02,2225000.0,4,3.5,3030,456073,1.0,YES,NO,NO,NONE,Good,9 Better,Gas,PRIVATE,3030,0,600,600,1992,0,47.28027,-122.05479,21604 Southeast 358th Street, Auburn,Washington,98092,1,5.0,47.28,-122.055,22.0
275,522059265,2022-03-07,640000.0,3,2.0,1690,14850,1.0,NO,NO,NO,NONE,Average,7 Average,Gas,PUBLIC,1690,0,500,0,1969,0,47.42213,-122.20221,20029 104th Place Southeast, Kent,Washington,98031,1,37.0,47.4225,-122.202,37.0
276,3897100250,2021-10-08,1560000.0,5,2.5,2620,9900,2.0,NO,NO,YES,NONE,Average,8 Good,Electricity,PUBLIC,2620,0,660,430,1982,0,47.6705,-122.184855,11618 Northeast 73rd Street, Kirkland,Washington,98033,1,46.0,47.67,-122.1855,55.0
277,7853270080,2022-05-03,1460000.0,4,2.5,3480,6391,2.0,NO,NO,NO,NONE,Average,9 Better,Gas,PUBLIC,3480,0,430,30,2005,0,47.542105,-121.87827,34624 Southeast Carmichael Street, Snoqualmie,Washington,98065,1,14.0,47.5425,-121.878,12.0
278,6204200370,2021-08-25,825000.0,3,2.5,1860,13397,2.0,NO,NO,NO,NONE,Average,8 Good,Gas,PUBLIC,1860,0,480,250,1987,0,47.736455,-122.20163,14929 104th Avenue Northeast, Bothell,Washington,98011,1,14.0,47.736,-122.202,19.0
279,6120900050,2022-05-07,945000.0,4,3.0,2470,9147,1.0,NO,NO,NO,AVERAGE,Average,8 Good,Gas,PUBLIC,1640,830,0,410,1973,0,47.43975,-122.33891,18215 3rd Place Southwest, Normandy Park,Washington,98166,1,49.0,47.439,-122.3385,46.0
280,2144800157,2022-01-13,840000.0,4,3.0,2740,11400,1.0,NO,NO,NO,AVERAGE,Average,7 Average,Gas,PRIVATE,1570,1570,530,500,1970,0,47.48726,-122.23651,12844 77th Avenue South, Seattle,Washington,98178,1,45.0,47.487,-122.2365,26.0
281,4113800710,2021-09-22,1199000.0,3,2.5,2520,22026,2.0,NO,NO,NO,NONE,Average,9 Better,Gas,PUBLIC,2520,0,720,0,1991,0,47.53357000000001,-122.183152,11710 Southeast 77th Place, Newcastle,Washington,98056,1,24.0,47.5335,-122.1825,13.0
282,7893204930,2022-04-18,620000.0,3,1.5,1350,6719,1.0,NO,NO,NO,NONE,Average,6 Low Average,Gas,PUBLIC,1350,0,0,0,1979,0,47.41996500000001,-122.329355,20234 4th Place South, Des Moines,Washington,98198,1,32.0,47.4195,-122.3295,27.0
283,461000100,2021-12-15,960000.0,5,2.0,1400,5775,1.5,NO,NO,YES,NONE,Good,7 Average,Gas,PUBLIC,1400,940,0,200,1913,0,47.68208,-122.36643,7319 8th Avenue Northwest, Seattle,Washington,98117,1,69.0,47.682,-122.367,77.0
284,3250500140,2022-04-14,5310000.0,5,5.5,5020,9900,2.0,NO,NO,YES,NONE,Average,10 Very Good,Gas,PUBLIC,5020,0,690,350,2015,0,47.62724,-122.20942,1820 98th Avenue Northeast, Bellevue,Washington,98004,1,56.0,47.6265,-122.2095,33.0
285,4058201340,2021-09-16,690000.0,2,2.0,2060,6960,1.0,NO,NO,NO,AVERAGE,Average,7 Average,Oil,PUBLIC,1060,1060,240,0,1942,0,47.50496500000001,-122.237845,7649 South Lakeridge Drive, Seattle,Washington,98178,1,22.0,47.505,-122.238,29.0
286,2810100055,2021-12-27,870000.0,4,1.5,2580,4160,1.0,NO,NO,NO,NONE,Average,7 Average,Gas,PUBLIC,1640,940,0,440,1919,0,47.542085,-122.38895,4337 Southwest Willow Street, Seattle,Washington,98136,1,82.0,47.5425,-122.3895,73.0
287,2921700178,2021-09-20,1160000.0,5,3.5,2050,1455,3.0,NO,NO,NO,NONE,Average,8 Good,Electricity,PUBLIC,1590,710,250,450,2021,0,47.68713,-122.37964,8333A 13th Ave NW, Seattle,Washington,98117,1,85.0,47.6865,-122.379,75.0
288,9528104910,2021-07-26,1470000.0,4,3.5,2110,3000,2.0,NO,NO,NO,NONE,Average,8 Good,Gas,PUBLIC,2110,0,220,140,2001,0,47.67689,-122.32808,6530 1st Avenue Northeast, Seattle,Washington,98115,1,91.0,47.6775,-122.328,84.0
289,7923300135,2021-12-07,3100000.0,5,4.5,4270,10262,2.0,NO,NO,NO,NONE,Average,9 Better,Gas,PUBLIC,4270,0,740,290,2021,0,47.59543,-122.13488,1631 154th Avenue Southeast, Bellevue,Washington,98007,1,47.0,47.595,-122.1345,56.0
290,9542840650,2021-09-13,701000.0,4,2.5,2150,3600,2.0,NO,NO,NO,NONE,Average,7 Average,Gas,PUBLIC,2150,0,400,90,2010,0,47.36583,-122.020425,24050 Southeast 263rd Place, Maple Valley,Washington,98038,1,49.0,47.3655,-122.0205,63.0
291,1118000491,2021-06-11,5800000.0,7,5.0,6370,15859,2.5,NO,NO,NO,NONE,Good,12 Luxury,Gas,PUBLIC,5810,2590,480,410,1931,0,47.639085,-122.289545,2148 Broadmoor Drive East, Seattle,Washington,98112,1,27.0,47.6385,-122.289,37.0
292,4222200140,2021-10-18,510000.0,5,2.0,1690,7526,1.0,NO,NO,NO,NONE,Average,7 Average,Electricity,PUBLIC,1690,0,590,370,1968,0,47.34627,-122.30331,2325 South 284th Place, Federal Way,Washington,98003,1,46.0,47.346,-122.304,40.0
293,1189000410,2021-12-17,1265000.0,3,3.0,1610,1578,2.0,NO,NO,YES,NONE,Average,10 Very Good,Gas,PUBLIC,1340,610,340,390,2016,0,47.613155,-122.29568,2808 East Union Street, Seattle,Washington,98122,1,93.0,47.613,-122.295,80.0
294,9247000090,2022-01-18,1200000.0,3,1.0,1040,9032,1.0,NO,NO,NO,NONE,Average,7 Average,Gas,PUBLIC,1040,0,520,0,1970,0,47.70957,-122.200585,12350 105th Place Northeast, Kirkland,Washington,98034,1,27.0,47.709,-122.2005,23.0
295,2391601690,2021-06-28,950000.0,3,4.0,2490,8625,2.0,NO,NO,NO,AVERAGE,Very Good,7 Average,Electricity,PUBLIC,1660,830,0,810,1926,0,47.56164,-122.39788,4544 51st Place Southwest, Seattle,Washington,98116,1,55.0,47.562,-122.3985,36.0
296,1895450130,2021-08-17,628000.0,3,2.5,2060,7299,2.0,NO,NO,NO,NONE,Average,8 Good,Gas,PUBLIC,2060,0,660,520,2004,0,47.292335,-122.35914,1848 Southwest 345th Place, Federal Way,Washington,98023,1,33.0,47.292,-122.3595,52.0
297,2473370220,2021-07-20,808000.0,4,3.5,2770,13225,1.0,NO,NO,YES,NONE,Good,9 Better,Gas,PUBLIC,1570,1450,530,350,1974,0,47.448305,-122.134435,15431 Southeast Fairwood Boulevard, Renton,Washington,98058,1,8.0,47.448,-122.1345,22.0
298,9523100385,2021-11-08,2130000.0,4,3.5,2780,3431,2.0,NO,NO,NO,NONE,Average,8 Good,Gas,PUBLIC,2080,990,290,280,2018,0,39.97446,-75.22959,1418 North 54th Street, Philadelphia,Pennsylvania,19131,1,70.0,39.975,-75.2295,68.0
299,5466750340,2021-07-08,510000.0,3,2.0,1410,10358,1.0,NO,NO,YES,NONE,Average,7 Average,Gas,PUBLIC,1410,0,440,70,1984,0,47.358235,-122.15596,27129 139th Place Southeast, Kent,Washington,98042,1,45.0,47.358,-122.1555,27.0
300,7936000084,2022-04-04,3950000.0,3,4.0,7820,19440,2.0,NO,NO,YES,GOOD,Average,11 Excellent,Gas,PUBLIC,5350,3140,670,0,2013,0,47.56001,-122.40112,4750 54th Avenue Southwest, Seattle,Washington,98116,1,20.0,47.5605,-122.4015,22.0
301,3875000090,2022-05-25,1510000.0,3,2.5,2210,4352,2.0,NO,NO,YES,NONE,Average,8 Good,Gas,PUBLIC,2210,0,560,0,2003,0,47.71877,-122.17462,13238 124th Court Northeast, Kirkland,Washington,98034,1,54.0,47.7195,-122.175,47.0
302,7349550020,2021-09-10,640000.0,3,2.5,1830,2873,1.5,NO,NO,NO,NONE,Average,7 Average,Gas/Solar,PUBLIC,1830,0,0,210,1924,2017,47.644965,-121.91352,4118 Mckinley Street, Carnation,Washington,98014,1,63.0,47.6445,-121.914,60.0
303,5419801300,2021-07-26,705000.0,3,2.5,1810,6750,2.0,NO,NO,NO,NONE,Very Good,7 Average,Gas,PUBLIC,1810,0,510,380,1985,0,47.40257,-122.18476,11711 Southeast 222nd Court, Kent,Washington,98031,1,15.0,47.403,-122.1855,16.0
304,3797310090,2022-05-20,650000.0,3,2.5,1910,9237,2.0,NO,NO,NO,NONE,Good,7 Average,Gas,PUBLIC,1910,0,440,40,1994,0,47.19269,-122.01336,3371 Wynalda Drive, Enumclaw,Washington,98022,1,18.0,47.193,-122.013,29.0
305,9543000785,2022-05-23,545000.0,3,2.5,1950,9036,1.0,NO,NO,NO,NONE,Very Good,7 Average,Electricity,PUBLIC,1200,750,0,160,1991,0,47.27468,-122.247985,417 4th Avenue South, Algona,Washington,98001,1,45.0,47.274,-122.2485,53.0
306,464001130,2021-11-19,750000.0,2,2.0,1470,8670,1.0,NO,NO,YES,NONE,Average,7 Average,Oil,PUBLIC,1120,1120,0,570,1948,0,47.69481,-122.39321,9021 28th Avenue Northwest, Seattle,Washington,98117,1,29.0,47.6955,-122.3925,45.0
307,8718500255,2021-08-24,650000.0,3,2.5,1250,10005,1.0,NO,NO,NO,NONE,Average,7 Average,Oil,PUBLIC,1250,1250,310,0,1957,0,47.7395,-122.25894,6232 Northeast 154th Street, Kenmore,Washington,98028,1,5.0,47.739,-122.259,14.0
308,6673070070,2021-12-28,645000.0,3,2.0,1520,8250,1.0,NO,NO,NO,NONE,Average,8 Good,Gas,PUBLIC,1190,590,420,200,1981,0,47.46087,-122.18869,2209 Southeast 21st Street, Renton,Washington,98055,1,19.0,47.4615,-122.1885,34.0
309,4045500060,2022-04-07,2250000.0,3,3.0,3220,33750,1.5,YES,NO,NO,EXCELLENT,Average,8 Good,Gas,PRIVATE,1860,1360,0,520,2015,0,47.6994,-121.8728,11422 West Lake Joy Drive Northeast, Carnation,Washington,98014,1,0.0,47.7,-121.8735,10.0
310,1249400160,2021-10-22,652000.0,3,2.5,2170,18700,1.0,NO,NO,NO,NONE,Average,8 Good,Electricity,PRIVATE,2170,0,520,0,1983,0,47.3355,-122.10987,29719 174th Avenue Southeast, Kent,Washington,98042,1,0.0,47.3355,-122.1105,18.0
311,4459800075,2021-10-19,1050000.0,3,2.0,2140,4923,1.0,NO,NO,YES,NONE,Good,8 Good,Electricity,PUBLIC,1070,1070,0,0,1928,0,47.69022,-122.33944,8251 Ashworth Avenue North, Seattle,Washington,98103,1,77.0,47.6895,-122.34,76.0
312,4298100180,2021-09-13,1400000.0,4,3.0,2880,35302,2.0,NO,NO,NO,NONE,Average,9 Better,Gas,PRIVATE,2880,0,780,130,1994,0,47.7643,-122.04936,18801 215th Way Northeast, Woodinville,Washington,98077,1,3.0,47.7645,-122.049,19.0
313,7000100850,2021-09-06,2499000.0,5,4.5,4740,7890,2.0,NO,NO,YES,AVERAGE,Average,9 Better,Gas,PUBLIC,3340,1400,700,230,2016,0,47.580815,-122.189085,3244 113th Avenue Southeast, Bellevue,Washington,98004,1,17.0,47.5815,-122.1885,54.0
314,7695500190,2021-09-25,789000.0,3,2.5,2240,16820,1.0,NO,NO,NO,NONE,Good,7 Average,Gas,PRIVATE,1490,900,570,420,1985,0,47.47505,-122.11905,14308 165th Place Southeast, Renton,Washington,98059,1,15.0,47.475,-122.1195,7.0
315,1422250150,2021-07-28,819422.0,3,2.0,1670,5500,1.0,NO,NO,NO,NONE,Average,9 Better,Gas,PUBLIC,1670,0,390,110,2021,0,47.480265,-121.734045,3118 Southeast 13th Way, North Bend,Washington,98045,1,1.0,47.481,-121.734,16.0
316,6430000590,2022-03-14,1165000.0,4,1.5,1360,3060,1.5,NO,NO,NO,NONE,Very Good,7 Average,Gas,PUBLIC,1360,0,0,90,1905,0,47.6882,-122.34777,749 North 82nd Street, Seattle,Washington,98103,1,90.0,47.688,-122.3475,82.0
317,797000035,2021-11-01,453900.0,2,1.0,830,7300,1.0,NO,NO,YES,NONE,Good,6 Low Average,Electricity,PRIVATE,830,0,0,0,1963,0,47.49976,-122.32412,704 South 116th Street, Burien,Washington,98168,1,51.0,47.5005,-122.3235,30.0
318,9315500040,2022-02-25,1061000.0,4,2.5,3232,6956,2.0,NO,NO,NO,NONE,Average,8 Good,Gas,PUBLIC,3232,0,627,342,2017,0,47.332915,-122.259215,6054 South 301st Street, Auburn,Washington,98001,1,6.0,47.3325,-122.259,7.0
319,1930301160,2022-01-14,927500.0,3,1.0,1280,2400,1.5,NO,NO,YES,NONE,Average,7 Average,Oil,PUBLIC,1280,830,160,0,1927,0,47.65433,-122.353625,416 North 39th Street, Seattle,Washington,98103,1,92.0,47.655,-122.3535,80.0
320,8682262380,2021-06-11,748000.0,2,2.0,1340,4447,1.0,NO,NO,NO,NONE,Average,8 Good,Gas,PUBLIC,1340,0,470,120,2004,0,47.717455,-122.03258,13233 Sun Break Way Northeast, Redmond,Washington,98053,1,4.0,47.718,-122.0325,15.0
321,5592900310,2021-08-24,400000.0,3,1.0,1620,7376,1.0,NO,NO,NO,GOOD,Average,8 Good,Oil,PUBLIC,1620,0,0,40,1953,0,47.483065,-122.19012,102 Monterey Place Northeast, Renton,Washington,98056,1,34.0,47.4825,-122.19,16.0
322,7697910180,2022-03-16,670000.0,3,2.5,1640,6871,1.0,NO,NO,NO,NONE,Good,7 Average,Gas,PUBLIC,1130,1040,680,80,1990,0,47.36633,-122.17916,26224 121st Avenue Southeast, Kent,Washington,98030,1,32.0,47.367,-122.1795,44.0
323,6384500650,2022-03-07,450000.0,3,2.0,1990,6625,2.0,NO,NO,NO,NONE,Average,7 Average,Electricity,PUBLIC,1620,900,0,100,1950,0,47.569255,-122.39653,3833 50th Avenue Southwest, Seattle,Washington,98116,1,53.0,47.5695,-122.397,44.0
324,9406500330,2021-08-24,500000.0,2,2.0,1080,1809,2.0,NO,YES,NO,NONE,Average,7 Average,Gas,PUBLIC,1080,0,272,120,1990,0,47.75319,-122.2438,7224 Northeast 171st Lane, Kenmore,Washington,98028,1,34.0,47.7525,-122.244,40.0
325,7852000300,2021-08-26,1005000.0,3,2.5,2120,7910,2.0,NO,YES,NO,NONE,Average,7 Average,Gas,PUBLIC,2120,0,440,100,1998,0,47.535395,-121.87098,7243 Autumn Avenue Southeast, Snoqualmie,Washington,98065,1,67.0,47.535,-121.8705,59.0
326,117000100,2022-04-25,1310000.0,4,2.0,2160,5750,1.0,NO,NO,NO,NONE,Very Good,7 Average,Gas,PUBLIC,1080,1080,0,144,1909,0,47.58426,-122.38472,2136 42nd Avenue Southwest, Seattle,Washington,98116,1,90.0,47.5845,-122.385,75.0
327,899020010,2021-11-15,439950.0,3,1.5,1110,8754,1.0,NO,NO,YES,NONE,Average,6 Low Average,Electricity,PUBLIC,1110,0,360,0,1985,0,47.20482,-122.00529,1471 Semanski Street, Enumclaw,Washington,98022,1,46.0,47.205,-122.0055,48.0
328,7000100840,2021-07-06,1360000.0,4,3.5,3000,10302,1.5,NO,NO,YES,NONE,Average,8 Good,Electricity,PUBLIC,2280,720,0,0,1920,2017,47.58112,-122.188815,3236 113th Avenue Southeast, Bellevue,Washington,98004,1,17.0,47.5815,-122.1885,54.0
329,826079097,2021-08-16,800000.0,3,1.5,1870,218226,2.0,NO,NO,NO,NONE,Average,7 Average,Electricity,PRIVATE,1870,0,480,530,1986,0,47.75907,-121.93248,30512 Northeast 183rd Street, Duvall,Washington,98019,1,0.0,47.7585,-121.932,
330,34001607,2022-04-27,1678331.0,2,2.0,2180,7500,1.0,NO,NO,NO,GOOD,Average,8 Good,Oil,PUBLIC,1480,1480,420,180,1955,0,47.52945,-122.388895,8235 Northrop Place Southwest, Seattle,Washington,98136,1,46.0,47.529,-122.3895,34.0
331,7515000112,2022-03-25,1149950.0,3,2.0,1530,854,4.0,NO,NO,NO,NONE,Average,9 Better,Electricity,PUBLIC,1530,0,0,430,2021,0,47.69244000000001,-122.37424,8747A 14th Ave NW, Seattle,Washington,98117,1,85.0,47.6925,-122.3745,77.0
332,9187200225,2022-04-04,850000.0,3,2.0,1370,1117,2.0,NO,NO,NO,NONE,Average,8 Good,Gas,PUBLIC,1150,440,220,60,2006,0,47.6027,-122.29506,115A 29th Ave, Seattle,Washington,98122,1,79.0,47.6025,-122.295,86.0
333,1840000085,2022-03-17,785000.0,3,2.5,2200,10245,1.0,NO,NO,NO,NONE,Average,7 Average,Gas,PRIVATE,1220,1220,340,0,1957,0,47.44144,-122.274615,17917 48th Avenue South, SeaTac,Washington,98188,1,21.0,47.442,-122.274,45.0
334,7866500068,2021-07-07,875000.0,5,3.5,2150,3281,2.0,NO,NO,NO,AVERAGE,Average,7 Average,Gas,PUBLIC,1480,670,330,170,2006,0,44.90298,-93.227595,5512 31st Avenue South, Minneapolis,Minnesota,55417,1,52.0,44.9025,-93.228,52.0
335,3271801025,2022-04-28,1770000.0,4,1.5,2170,6380,2.0,NO,NO,YES,NONE,Average,9 Better,Electricity,PUBLIC,1930,1140,380,470,1941,0,47.64765,-122.40991499999998,3027 West Viewmont Way West, Seattle,Washington,98199,1,26.0,47.6475,-122.4105,42.0
336,6115400008,2021-07-28,1100000.0,4,3.0,3200,20868,1.0,NO,NO,NO,NONE,Average,8 Good,Electricity,PUBLIC,1600,1600,510,310,1956,2017,47.43103,-122.33794,159 Southwest 192nd Street, Normandy Park,Washington,98166,1,36.0,47.4315,-122.3385,22.0
337,2020600040,2021-10-29,700000.0,3,2.5,1460,9513,1.0,NO,NO,NO,NONE,Very Good,7 Average,Gas,PUBLIC,1060,920,400,460,1981,0,47.66893,-122.19242,825 8th Avenue South, Kirkland,Washington,98033,1,72.0,47.6685,-122.193,60.0
338,1951800720,2021-08-19,1380000.0,5,3.5,3480,14050,2.0,NO,NO,YES,NONE,Good,8 Good,Gas,PUBLIC,2210,1270,480,390,1968,0,47.5418,-122.165655,6800 131st Avenue Southeast, Bellevue,Washington,98006,1,62.0,47.5425,-122.166,45.0
339,993000197,2021-08-27,618800.0,3,3.0,1340,1346,2.0,NO,NO,NO,NONE,Average,8 Good,Gas,PUBLIC,1140,440,240,0,2005,0,47.69281,-122.34119,8836A Stone Ave N, Seattle,Washington,98103,1,75.0,47.6925,-122.3415,77.0
340,1995200130,2022-01-07,835000.0,3,2.0,2240,11424,1.0,NO,NO,YES,NONE,Average,7 Average,Electricity,PUBLIC,1120,1120,0,690,1944,0,47.696555,-122.326815,205 Northeast 94th Street, Seattle,Washington,98115,1,57.0,47.697,-122.3265,81.0
341,7200089,2021-09-09,805000.0,1,1.0,460,6000,1.0,NO,NO,NO,NONE,Good,5 Fair,Gas,PUBLIC,460,0,0,40,1925,0,47.48221,-122.20514,112 Wells Avenue South, Renton,Washington,98057,1,95.0,47.4825,-122.205,85.0
342,2126059230,2021-12-20,1300000.0,5,3.0,2590,29354,1.0,NO,NO,YES,AVERAGE,Average,8 Good,Gas,PUBLIC,1340,1250,480,870,1977,0,47.72017,-122.17476,13330 124th Avenue Northeast, Kirkland,Washington,98034,1,54.0,47.7195,-122.175,47.0
343,226039225,2021-11-01,1118500.0,4,2.0,2420,10500,1.0,NO,NO,NO,NONE,Average,8 Good,Gas,PUBLIC,1400,1400,380,210,1957,0,47.77505,-122.37917,1703 Northwest 201st Street, Shoreline,Washington,98177,1,47.0,47.775,-122.379,43.0
344,7347600410,2022-03-04,425000.0,2,1.0,1450,13988,1.0,NO,NO,YES,NONE,Average,6 Low Average,Gas,PUBLIC,1450,390,0,100,1942,0,47.48017,-122.27592,4531 South 137th Street, Tukwila,Washington,98168,1,34.0,47.4795,-122.2755,25.0
345,1447700480,2022-01-14,1275000.0,3,2.5,2880,8125,2.0,NO,NO,NO,NONE,Average,8 Good,Gas,PUBLIC,2880,0,430,280,2020,0,47.476435,-121.76633,1676 Cedar Butte Avenue Southeast, North Bend,Washington,98045,1,11.0,47.4765,-121.767,28.0
346,2767900005,2021-10-07,870750.0,3,1.5,1320,3360,1.5,NO,NO,NO,NONE,Average,8 Good,Gas,PUBLIC,1190,840,180,0,1929,0,47.67131,-122.36829,5812 9th Avenue Northwest, Seattle,Washington,98107,1,83.0,47.6715,-122.3685,90.0
347,7457400340,2021-09-02,585000.0,4,2.5,2030,6400,2.0,NO,NO,NO,NONE,Very Good,7 Average,Gas,PUBLIC,2030,0,710,0,2000,0,47.319315,-122.190435,31508 113th Avenue Southeast, Auburn,Washington,98092,1,20.0,47.319,-122.19,15.0
348,6671900215,2021-07-23,650000.0,2,1.0,1220,5775,1.0,NO,NO,NO,NONE,Average,6 Low Average,Gas,PUBLIC,1220,0,0,0,1948,0,47.741015,-122.34014,15337 Ashworth Place North, Shoreline,Washington,98133,1,73.0,47.7405,-122.34,68.0
349,8608900225,2021-07-17,676000.0,3,2.0,1570,5850,1.0,NO,NO,NO,NONE,Average,6 Low Average,Gas,PUBLIC,1070,790,360,0,1944,0,47.55865,-122.39188500000002,4822 47th Avenue Southwest, Seattle,Washington,98116,1,84.0,47.559,-122.3925,59.0
350,8635751410,2022-05-05,1675000.0,3,2.5,2080,4200,2.0,NO,NO,NO,NONE,Good,8 Good,Gas,PUBLIC,2080,0,410,100,1999,0,47.60354,-122.02093,584 239th Avenue Southeast, Sammamish,Washington,98074,1,9.0,47.604,-122.0205,32.0
351,3438501862,2022-03-11,765000.0,3,2.5,1450,5008,1.0,NO,NO,NO,NONE,Average,7 Average,Gas,PUBLIC,840,850,240,190,2007,0,47.54349000000001,-122.35679,6546 18th Avenue Southwest, Seattle,Washington,98106,1,26.0,47.544,-122.3565,68.0
352,1795920020,2021-07-07,1206101.0,4,2.5,2800,6907,2.0,NO,NO,NO,NONE,Average,8 Good,Gas,PUBLIC,2800,0,580,370,1987,0,47.72558,-122.10218,14100 177th Court Northeast, Redmond,Washington,98052,1,6.0,47.7255,-122.1015,29.0
353,2560804945,2021-11-05,577000.0,3,2.0,1610,8500,1.0,NO,NO,YES,NONE,Average,7 Average,Gas,PUBLIC,1610,0,420,160,1989,0,47.37634,-122.321775,25122 Marine View Drive South, Des Moines,Washington,98198,1,8.0,47.376,-122.322,11.0
354,41000181,2021-06-11,1004000.0,6,4.5,3890,10410,2.0,NO,NO,NO,NONE,Average,10 Very Good,Gas,PUBLIC,3890,0,840,380,2007,0,47.470075,-122.282225,4055 South 148th Street, Tukwila,Washington,98168,1,63.0,47.4705,-122.2815,43.0
355,3575305662,2021-10-25,2250000.0,4,4.5,3450,10000,2.0,NO,NO,NO,GOOD,Average,9 Better,Gas,PRIVATE RESTRICTED,2380,1070,510,430,2021,0,47.62176,-122.05738999999998,1409 212th Avenue Northeast, Sammamish,Washington,98074,1,1.0,47.622,-122.058,11.0
356,1807900155,2022-02-04,1880000.0,4,2.0,1700,5000,1.0,NO,NO,NO,NONE,Good,7 Average,Oil,PUBLIC,1700,300,0,100,1918,1954,47.670915,-122.201265,321 6th Avenue South, Kirkland,Washington,98033,1,88.0,47.6715,-122.202,79.0
357,9315500280,2022-02-10,875000.0,4,2.5,2808,6250,2.0,NO,NO,NO,NONE,Average,8 Good,Gas,PUBLIC,2808,0,441,378,2016,0,47.33082,-122.259005,6055 South 302nd Street, Auburn,Washington,98001,1,5.0,47.331,-122.259,3.0
358,1312900010,2021-09-30,475000.0,3,2.0,1270,7953,1.0,NO,NO,NO,NONE,Good,7 Average,Gas,PUBLIC,1270,0,500,0,1967,0,47.3395,-122.290115,29218 33rd Avenue South, Auburn,Washington,98001,1,21.0,47.34,-122.2905,32.0
359,6666830480,2022-03-15,2365000.0,3,2.5,3560,4395,3.0,NO,NO,NO,NONE,Average,8 Good,Gas,PUBLIC,3560,0,430,110,2013,0,47.70523,-122.114065,11742 169th Place Northeast, Redmond,Washington,98052,1,19.0,47.7045,-122.1135,37.0
360,3797001695,2022-02-09,821000.0,3,1.0,1230,3000,1.5,NO,NO,NO,NONE,Average,7 Average,Oil,PUBLIC,1230,790,0,40,1924,0,47.68455,-122.348995,719 North 77th Street, Seattle,Washington,98103,1,90.0,47.685,-122.349,91.0
361,7852090480,2021-06-10,1250000.0,4,2.5,3020,5500,2.0,NO,NO,NO,NONE,Average,9 Better,Gas,PUBLIC,3020,0,480,140,2001,0,47.533725,-121.8757,34815 Southeast Curtis Drive, Snoqualmie,Washington,98065,1,76.0,47.5335,-121.875,57.0
362,526069046,2022-05-23,1950000.0,5,3.5,4300,257004,2.0,NO,NO,NO,NONE,Good,9 Better,Electricity,PRIVATE,3370,930,1000,980,1977,0,47.76757,-122.06828,19026 201st Avenue Northeast, Woodinville,Washington,98077,1,1.0,47.7675,-122.0685,9.0
363,2114700540,2021-10-07,609000.0,3,2.5,1360,4320,1.0,NO,NO,YES,NONE,Average,7 Average,Gas,PUBLIC,700,660,0,120,1918,2014,47.532725,-122.34719,7769 Highland Park Way Southwest, Seattle,Washington,98106,1,38.0,47.532,-122.3475,53.0
364,3066400220,2021-06-22,1250000.0,4,2.5,2480,10297,1.5,NO,NO,NO,NONE,Average,10 Very Good,Gas,PUBLIC,2480,0,550,420,1987,0,47.63041,-122.04849,21812 Northeast 22nd Street, Sammamish,Washington,98074,1,3.0,47.631,-122.049,25.0
365,2291400371,2021-07-29,515000.0,2,1.5,1300,1080,2.0,NO,NO,NO,NONE,Average,8 Good,Gas,PUBLIC,1300,0,0,30,1968,2018,47.70543,-122.34591,10522B Whitman Ave N, Seattle,Washington,98133,1,80.0,47.706,-122.346,68.0
366,8074200095,2022-03-12,650000.0,3,1.0,1030,7590,1.0,NO,YES,NO,NONE,Good,7 Average,Gas,PUBLIC,1030,0,480,0,1957,0,47.4903,-122.178415,3008 Northeast 5th Place, Renton,Washington,98056,1,63.0,47.49,-122.178,48.0
367,112900270,2022-04-04,930000.0,3,3.0,3680,15723,1.0,NO,NO,NO,NONE,Average,7 Average,Gas,PUBLIC,2350,1330,0,270,1975,0,47.73661,-121.96644,27812 Northeast 151st Street, Duvall,Washington,98019,1,21.0,47.736,-121.9665,25.0
368,2425039060,2021-07-27,3325880.0,5,4.5,3880,5032,2.0,NO,NO,NO,NONE,Average,10 Very Good,Electricity,PUBLIC,2880,1430,430,700,2021,0,47.64317,-122.36857,2588 9th Avenue West, Seattle,Washington,98119,1,69.0,47.643,-122.3685,75.0
369,7889500160,2021-06-14,1050500.0,4,3.5,2150,1826,2.0,NO,NO,NO,NONE,Average,8 Good,Electricity,PUBLIC,1690,840,380,0,2018,0,47.60373,-122.03362,22895 Southeast 5th Court, Sammamish,Washington,98074,1,58.0,47.604,-122.034,38.0
370,1788900500,2022-05-09,440000.0,3,1.0,800,9120,1.0,NO,NO,NO,NONE,Good,6 Low Average,Gas,PRIVATE,800,0,0,0,1960,0,47.3262,-122.33991,30713 4th Avenue Southwest, Federal Way,Washington,98023,1,28.0,47.3265,-122.34,36.0
371,5100403381,2021-09-21,251862.0,3,1.0,1290,6380,1.5,NO,NO,NO,NONE,Average,7 Average,Gas,PUBLIC,1030,750,0,50,1930,0,47.69512,-122.31929,822 Northeast 91st Street, Seattle,Washington,98115,1,80.0,47.6955,-122.319,94.0
372,8691360170,2021-11-24,2162000.0,4,2.5,3420,12648,2.0,NO,NO,NO,NONE,Average,10 Very Good,Gas,PUBLIC,3420,0,740,200,2000,0,47.598185,-121.98301,1204 268th Way Southeast, Sammamish,Washington,98075,1,1.0,47.598,-121.983,22.0
373,2389100010,2021-08-10,700000.0,2,1.0,980,2505,1.0,NO,NO,NO,NONE,Good,7 Average,Gas,PUBLIC,980,0,0,50,1942,0,47.68755,-122.37866,8022 17th Avenue Northwest, Seattle,Washington,98117,1,85.0,47.688,-122.379,75.0
374,6928600390,2021-11-10,520000.0,3,2.0,910,8750,1.0,NO,NO,NO,NONE,Very Good,7 Average,Gas,PUBLIC,910,0,480,90,1962,0,47.33448,-122.33008999999998,29742 3rd Avenue South, Federal Way,Washington,98003,1,14.0,47.334,-122.3295,22.0
375,1442900050,2021-12-02,1426000.0,4,3.0,3310,8235,2.0,NO,NO,NO,AVERAGE,Average,9 Better,Gas,PUBLIC,3310,0,400,520,2020,0,47.481045,-121.77174,1070 SE 13th Pl, North Bend,Washington,98045,1,11.0,47.481,-121.7715,29.0
376,7135521220,2021-06-14,1150000.0,3,2.0,2620,9248,1.0,NO,NO,NO,NONE,Good,9 Better,Gas,PUBLIC,2620,220,480,230,1989,0,47.53069,-122.147678,14500 Southeast 79th Drive, Newcastle,Washington,98059,1,13.0,47.5305,-122.148,14.0
377,3294700060,2022-06-01,935000.0,1,1.0,420,22475,1.0,NO,NO,NO,GOOD,Average,5 Fair,Oil,PUBLIC,420,410,0,0,1949,0,47.4733,-122.20078999999998,709 Renton Avenue South, Renton,Washington,98057,1,53.0,47.4735,-122.2005,18.0
378,726059018,2021-11-18,1650000.0,5,3.0,3470,7879,2.0,NO,NO,NO,NONE,Average,10 Very Good,Gas,PUBLIC,3470,0,720,450,2003,0,47.75641,-122.226225,17655 86th Avenue Northeast, Bothell,Washington,98011,1,36.0,47.757,-122.226,32.0
379,239000136,2021-07-06,1100000.0,3,3.0,2860,17649,1.0,YES,NO,NO,EXCELLENT,Fair,8 Good,Oil,PUBLIC,1430,1430,0,310,1951,0,47.42792,-122.27977,19441 Military Road South, SeaTac,Washington,98188,1,7.0,47.4285,-122.28,13.0
380,239000135,2021-07-06,1100000.0,2,1.0,840,16500,1.0,NO,NO,YES,NONE,Average,6 Low Average,Gas,PUBLIC,840,0,0,130,1927,0,47.42792,-122.27917,19435 Military Road South, SeaTac,Washington,98188,1,9.0,47.4285,-122.2785,15.0
381,8562790350,2022-06-03,1940000.0,4,3.5,2780,4605,2.0,NO,YES,NO,NONE,Average,10 Very Good,Gas,PUBLIC,2180,1020,420,430,2014,0,47.52997,-122.07376,2265 Northwest Stoney Creek Drive, Issaquah,Washington,98027,1,7.0,47.5305,-122.0745,7.0
382,6669250080,2021-11-16,1300000.0,4,3.0,3010,7047,2.0,NO,NO,NO,NONE,Average,9 Better,Gas,PUBLIC,3010,0,710,0,2005,0,47.51483,-122.188045,2520 Camas Avenue Northeast, Renton,Washington,98056,1,19.0,47.5155,-122.1885,28.0
383,3575304140,2021-08-27,750000.0,5,2.0,1820,10000,1.0,NO,NO,NO,NONE,Average,7 Average,Electricity,PUBLIC,1820,0,480,0,1986,0,47.617975,-122.060565,907 210th Avenue Northeast, Sammamish,Washington,98074,1,3.0,47.6175,-122.061,17.0
384,8691300170,2021-11-02,1850000.0,4,3.5,3650,10126,2.0,NO,NO,NO,NONE,Average,10 Very Good,Gas,PUBLIC,3650,0,850,0,1997,0,47.58675,-121.97342,27209 Southeast 26th Place, Sammamish,Washington,98075,1,16.0,47.5875,-121.974,19.0
385,2424000200,2022-02-18,1300000.0,3,3.0,2360,29307,1.0,NO,NO,YES,NONE,Very Good,8 Good,Gas,PRIVATE,1180,1180,530,350,1975,0,47.5221,-122.161165,9002 133rd Avenue Southeast, Newcastle,Washington,98059,1,6.0,47.5215,-122.1615,15.0
386,7355700191,2022-03-01,2060000.0,3,2.0,1590,23130,1.5,NO,NO,YES,NONE,Good,6 Low Average,Gas,PUBLIC,1590,600,0,220,1922,0,47.59445,-122.2439,7025 Southeast 22nd Street, Mercer Island,Washington,98040,1,34.0,47.595,-122.244,45.0
387,6151800280,2022-04-15,1850000.0,3,2.5,3230,17410,2.0,YES,NO,NO,AVERAGE,Average,9 Better,Electricity,PRIVATE,3230,0,0,420,1988,0,47.33994000000001,-122.049075,29252 218th Place Southeast, Black Diamond,Washington,98010,1,25.0,47.34,-122.049,32.0
388,5245600010,2022-02-17,517000.0,3,1.5,1270,9087,1.0,NO,NO,NO,NONE,Good,7 Average,Gas,PUBLIC,1270,0,0,250,1955,0,47.42673,-122.32422,811 South 196th Street, Des Moines,Washington,98148,1,32.0,47.427,-122.3235,25.0
389,1704900215,2022-05-12,1100000.0,3,2.0,1740,4883,1.0,NO,NO,NO,NONE,Average,7 Average,Gas,PUBLIC,870,870,0,40,1923,2019,47.55537,-122.28047,5164 42nd Avenue South, Seattle,Washington,98118,1,83.0,47.556,-122.28,54.0
390,6341000230,2021-12-09,599900.0,4,2.5,2400,9619,1.0,NO,NO,NO,NONE,Average,7 Average,Gas,PUBLIC,1300,1300,380,340,1964,0,47.491095,-122.343635,12503 7th Avenue Southwest, Burien,Washington,98146,1,47.0,47.4915,-122.343,36.0
391,5104531420,2021-10-13,1200000.0,5,2.5,3480,8214,2.0,NO,NO,NO,AVERAGE,Average,10 Very Good,Gas,PUBLIC,3480,0,790,0,2006,0,47.35397,-122.00311,25421 Southeast 277th Street, Maple Valley,Washington,98038,1,1.0,47.3535,-122.0025,3.0
392,192480070,2022-01-10,724950.0,4,2.5,2550,4904,2.0,NO,NO,NO,NONE,Average,8 Good,Gas,PUBLIC,2550,0,410,180,2022,0,47.36119,-122.07616000000002,26802 199th Avenue Southeast, Covington,Washington,98042,1,10.0,47.361,-122.076,31.0
393,4046700210,2021-11-08,750000.0,3,2.0,1610,15005,1.0,NO,NO,NO,NONE,Good,7 Average,Electricity,PRIVATE,1610,0,230,680,1986,0,47.68864,-121.91137,31907 Northeast 102nd Place, Carnation,Washington,98014,1,5.0,47.688,-121.911,28.0
394,5095401400,2021-12-10,680000.0,3,2.0,1820,15000,1.0,NO,NO,NO,NONE,Very Good,7 Average,Electricity,PRIVATE,910,910,580,370,1965,0,47.47043,-122.06889,14650 204th Avenue Southeast, Renton,Washington,98059,1,3.0,47.4705,-122.0685,3.0
395,192480190,2022-04-12,789950.0,5,3.0,2880,4500,2.0,NO,NO,NO,NONE,Average,8 Good,Gas,PUBLIC,2880,0,420,50,2022,0,47.36094,-122.0767,26817 199th Avenue Southeast, Covington,Washington,98042,1,10.0,47.361,-122.076,31.0
396,3996300010,2021-11-12,687500.0,3,1.5,1530,8146,1.0,NO,NO,NO,NONE,Average,7 Average,Oil,PUBLIC,920,920,0,0,1948,0,47.74434,-122.299035,15852 27th Avenue Northeast, Shoreline,Washington,98155,1,29.0,47.745,-122.2995,51.0
397,3904100083,2022-01-24,760000.0,3,2.0,1514,1104,2.0,NO,NO,NO,NONE,Average,9 Better,Electricity,PUBLIC,1132,382,0,384,2021,0,42.53376,-87.86381,43rd Avenue, Pleasant Prairie,Wisconsin,53158,1,4.0,42.534,-87.864,31.0
398,3823500010,2022-01-28,925000.0,3,2.5,1430,7463,1.0,NO,NO,NO,NONE,Very Good,7 Average,Gas,PUBLIC,1430,0,480,0,1976,0,47.51534,-122.18807,2614 Camas Avenue Northeast, Renton,Washington,98056,1,19.0,47.5155,-122.1885,28.0
399,9365700021,2021-06-14,3050000.0,7,7.5,4780,13411,2.0,NO,NO,NO,NONE,Very Good,10 Very Good,Gas,PUBLIC,2720,2060,500,690,1959,1989,47.574155,-122.228665,4011 83rd Avenue Southeast, Mercer Island,Washington,98040,1,44.0,47.574,-122.229,21.0
400,8138700095,2022-03-14,1125000.0,2,1.5,1460,8000,1.0,NO,NO,YES,AVERAGE,Average,8 Good,Electricity,PUBLIC,1160,1160,340,0,1945,0,47.69879,-122.37985,9520 18th Place Northwest, Seattle,Washington,98117,1,55.0,47.6985,-122.3805,60.0
401,6021503925,2021-11-24,2000000.0,4,3.5,2870,4000,2.0,NO,NO,NO,NONE,Average,9 Better,Gas,PUBLIC,2090,1020,240,60,1948,2018,47.684215,-122.38462,7535 22nd Avenue Northwest, Seattle,Washington,98117,1,73.0,47.6835,-122.385,80.0
402,9359500790,2022-03-10,475000.0,3,2.5,1610,8057,2.0,NO,NO,NO,NONE,Average,7 Average,Gas,PUBLIC,1610,0,440,80,1990,0,47.25941,-122.24393,312 White River Drive, Pacific,Washington,98047,1,15.0,47.259,-122.244,37.0
403,1771110310,2021-09-08,725000.0,3,2.0,1300,9880,1.0,NO,NO,NO,NONE,Very Good,7 Average,Gas,PRIVATE,1300,0,430,110,1972,0,47.75793,-122.07197,17806 199th Avenue Northeast, Woodinville,Washington,98077,1,17.0,47.7585,-122.0715,17.0
404,2202500170,2021-12-16,1050000.0,3,2.0,1620,9453,1.0,NO,NO,YES,NONE,Average,7 Average,Gas,PUBLIC,850,850,0,0,1954,0,47.575885,-122.13548,15411 Southeast 38th Street, Bellevue,Washington,98006,1,45.0,47.5755,-122.136,63.0
405,9274200316,2021-08-02,775000.0,3,2.5,1840,934,3.0,NO,NO,NO,NONE,Average,8 Good,Gas,PUBLIC,1680,430,270,110,2008,0,47.589135,-122.386745,4307 Southwest Seattle Street, Seattle,Washington,98116,1,70.0,47.589,-122.3865,87.0
406,9552700520,2022-03-25,2200000.0,5,3.0,3160,8905,1.0,NO,NO,NO,NONE,Average,8 Good,Gas,PUBLIC,1970,1640,600,960,1981,0,47.547685,-122.149055,6133 144th Place Southeast, Bellevue,Washington,98006,1,11.0,47.547,-122.1495,13.0
407,1585800390,2022-04-18,809500.0,5,3.0,2900,5039,2.0,NO,NO,NO,NONE,Average,8 Good,Gas,PUBLIC,2900,0,420,40,2015,0,47.261975,-122.29515,3027 South Christys Crossing Drive, Auburn,Washington,98003,1,11.0,47.262,-122.295,37.0
408,766810340,2021-09-12,515000.0,3,2.0,1360,8424,1.0,NO,NO,NO,NONE,Average,7 Average,Gas,PUBLIC,1360,0,460,200,1990,0,47.201955,-122.00951,3014 Edith Avenue, Enumclaw,Washington,98022,1,31.0,47.202,-122.01,36.0
409,9521101170,2021-08-02,950000.0,4,2.0,1450,3250,1.5,NO,NO,NO,NONE,Good,7 Average,Oil,PUBLIC,1450,450,0,190,1913,0,47.66447,-122.34648500000002,916 North 49th Street, Seattle,Washington,98103,1,65.0,47.664,-122.346,85.0
410,2331300225,2021-11-10,2000000.0,4,4.0,3340,4960,2.0,NO,NO,NO,NONE,Very Good,8 Good,Gas,PUBLIC,2610,1090,0,390,1918,0,47.677565,-122.35053,549 North 67th Street, Seattle,Washington,98103,1,81.0,47.6775,-122.3505,79.0
411,726059171,2021-10-21,1191074.0,2,2.0,2120,4604,2.0,YES,NO,NO,AVERAGE,Average,7 Average,Electricity,PRIVATE,2120,0,360,180,1958,1982,47.75232000000001,-122.22304,8819 Bothell Way Northeast, Bothell,Washington,98028,1,36.0,47.7525,-122.223,29.0
412,4006000164,2021-06-21,405000.0,3,1.5,1780,5006,2.0,NO,NO,YES,NONE,Average,6 Low Average,Electricity,PUBLIC,1780,0,0,0,1980,0,47.52459,-122.27823,8653 44th Avenue South, Seattle,Washington,98118,1,74.0,47.5245,-122.2785,57.0
413,6784200040,2021-08-10,775000.0,3,1.0,1100,7250,1.0,NO,NO,NO,NONE,Very Good,6 Low Average,Oil,PUBLIC,760,760,0,320,1942,0,47.51157,-122.38832,10214 44th Avenue Southwest, Seattle,Washington,98146,1,34.0,47.511,-122.388,24.0
414,9512500250,2021-07-20,1050000.0,3,1.5,1590,8250,1.0,NO,NO,NO,NONE,Good,7 Average,Gas,PUBLIC,1070,1040,520,210,1969,0,47.66995,-122.15053,14203 Northeast 73rd Street, Redmond,Washington,98052,1,32.0,47.67,-122.151,57.0
415,8091600330,2021-07-19,440000.0,3,1.0,1120,8580,1.0,NO,NO,NO,NONE,Good,6 Low Average,Electricity,PUBLIC,1120,0,310,0,1986,0,47.20368,-122.00553,2985 Sun Mountain Dr, Enumclaw,Washington,98022,1,49.0,47.2035,-122.0055,48.0
416,1773100470,2021-07-14,460000.0,2,1.0,670,4800,1.0,NO,NO,NO,NONE,Average,6 Low Average,Electricity,PUBLIC,670,0,0,80,1942,0,47.55795,-122.36395,4844 25th Avenue Southwest, Seattle,Washington,98106,1,53.0,47.5575,-122.364,68.0
417,2781280020,2022-05-10,760600.0,3,2.5,2570,2889,2.0,NO,NO,NO,NONE,Average,8 Good,Gas,PUBLIC,1830,740,480,100,2006,0,47.450005,-122.18908,17007 114th Avenue Southeast, Renton,Washington,98055,1,49.0,47.4495,-122.1885,30.0
418,7628700281,2021-06-17,799000.0,3,2.0,1480,704,3.0,NO,NO,YES,AVERAGE,Average,9 Better,Electricity,PUBLIC,1400,420,340,400,2021,0,47.56879,-122.37183,3014F SW Charlestown St, Seattle,Washington,98126,1,73.0,47.5695,-122.3715,69.0
419,126039647,2021-11-23,1435000.0,4,4.0,3630,8190,2.0,NO,NO,YES,NONE,Average,9 Better,Gas,PUBLIC,3110,1120,600,1010,1994,0,47.77661,-122.37711000000002,20328 15th Avenue Northwest, Shoreline,Washington,98177,1,39.0,47.7765,-122.3775,38.0
420,1109000411,2022-05-24,625000.0,3,2.0,980,5220,1.0,NO,NO,NO,NONE,Good,7 Average,Gas,PUBLIC,980,0,0,0,1955,0,47.538455,-122.26814,5142 South Orchard Street, Seattle,Washington,98118,1,55.0,47.538,-122.268,60.0
421,2771101921,2021-09-21,648000.0,2,1.5,1000,1251,2.0,NO,NO,NO,NONE,Average,7 Average,Gas,PUBLIC,930,290,220,50,2006,0,40.39679,-79.90272,22nd Avenue, West Homestead,Pennsylvania,15120,1,60.0,40.3965,-79.902,15.0
422,5316100585,2022-03-24,5795000.0,5,4.5,5160,7800,2.0,NO,NO,NO,AVERAGE,Average,10 Very Good,Gas,PUBLIC,3500,2830,670,1050,2007,0,47.63077,-122.28231,1232 39th Avenue East, Seattle,Washington,98112,1,74.0,47.631,-122.283,36.0
423,4389200971,2022-05-20,3780000.0,3,3.0,2530,10020,1.0,NO,NO,NO,NONE,Very Good,9 Better,Gas,PUBLIC,2000,1310,0,210,1974,0,47.615255,-122.212095,500 96th Avenue Northeast, Bellevue,Washington,98004,1,66.0,47.616,-122.2125,26.0
424,2260000220,2021-11-20,1410000.0,4,3.0,2400,9750,1.0,NO,NO,YES,NONE,Good,8 Good,Gas,PUBLIC,1380,1300,480,730,1976,0,47.63984,-122.110535,3344 172nd Avenue Northeast, Redmond,Washington,98052,1,24.0,47.64,-122.1105,54.0
425,1954400320,2022-03-25,1711000.0,4,2.5,2650,7324,2.0,NO,NO,NO,NONE,Good,8 Good,Gas,PUBLIC,2650,0,510,320,1988,0,47.61926,-122.04463,22130 Northeast 10th Place, Sammamish,Washington,98074,1,18.0,47.619,-122.0445,25.0
426,7518503004,2022-03-17,789000.0,2,1.5,1020,2550,2.0,NO,NO,NO,NONE,Average,7 Average,Electricity,PUBLIC,1020,0,220,120,1985,0,47.68302,-122.38033,7359 18th Avenue Northwest, Seattle,Washington,98117,1,80.0,47.6835,-122.3805,72.0
427,2719100042,2022-05-04,920000.0,3,2.5,1890,1599,2.0,NO,NO,NO,NONE,Average,9 Better,Gas,PUBLIC,1430,640,180,0,2012,0,47.54438,-122.38563,6534A 42nd Ave SW, Seattle,Washington,98136,1,83.0,47.544,-122.385,56.0
428,7708250082,2021-09-09,203759.0,5,2.5,2030,12809,2.0,NO,NO,NO,NONE,Good,8 Good,Gas,PUBLIC,2030,0,630,0,1997,0,47.38949,-122.152675,14040 Southeast 237th Place, Kent,Washington,98042,1,18.0,47.3895,-122.1525,50.0
429,8856004266,2021-11-29,175000.0,3,1.0,1300,8001,1.0,NO,NO,NO,NONE,Average,6 Low Average,Gas,PUBLIC,1300,0,0,120,1952,0,47.273255,-122.252845,440 Tacoma Boulevard, Algona,Washington,98001,1,54.0,47.274,-122.253,65.0
430,114101442,2021-07-26,820000.0,4,1.5,1810,11502,1.0,NO,NO,NO,NONE,Good,7 Average,Oil,PRIVATE,1210,1170,440,0,1963,0,47.75866,-122.229615,18008 83rd Avenue Northeast, Kenmore,Washington,98028,1,33.0,47.7585,-122.229,43.0
431,2110500070,2021-10-26,950000.0,3,2.0,2690,9359,1.0,NO,NO,YES,NONE,Very Good,7 Average,Gas,PUBLIC,1480,1210,510,240,1968,0,47.590625,-122.13371200000002,15412 Southeast 22nd Place, Bellevue,Washington,98007,1,42.0,47.5905,-122.133,62.0
432,1524039057,2021-12-08,756000.0,2,1.5,2140,4995,1.0,NO,NO,NO,AVERAGE,Good,7 Average,Gas,PUBLIC,1180,960,0,290,1948,0,47.57135,-122.40865,3631 59th Avenue Southwest, Seattle,Washington,98116,1,55.0,47.571,-122.409,43.0
433,4156300250,2022-05-16,575000.0,3,1.0,910,9601,1.0,NO,NO,NO,NONE,Average,7 Average,Electricity,PUBLIC,910,0,640,0,1980,0,47.35951,-122.056885,21250 Southeast 271st Street, Maple Valley,Washington,98038,1,36.0,47.3595,-122.0565,32.0
434,2253100730,2021-09-16,798860.0,5,3.0,2540,4539,2.0,NO,NO,NO,NONE,Average,8 Good,Gas,PUBLIC,2540,0,380,60,2021,0,47.35035,-122.05027,21812 Southeast 280th Street, Maple Valley,Washington,98038,1,18.0,47.3505,-122.0505,31.0
435,6018500100,2021-08-16,420000.0,2,1.0,770,6167,1.0,NO,NO,NO,NONE,Average,6 Low Average,Gas,PUBLIC,770,0,0,320,1947,2014,47.20096,-121.99589,1115 Lafromboise Street, Enumclaw,Washington,98022,1,86.0,47.2005,-121.9965,55.0
436,8965400350,2022-04-06,2300000.0,4,2.5,2990,11840,2.0,NO,NO,YES,NONE,Good,10 Very Good,Gas,PUBLIC,2990,0,730,350,1989,0,47.55833,-122.11661,16777 Southeast 49th Street, Bellevue,Washington,98006,1,57.0,47.559,-122.1165,44.0
437,2767602095,2021-11-09,1119000.0,3,2.5,1550,1155,2.0,NO,NO,YES,NONE,Average,8 Good,Electricity,PUBLIC,1220,520,190,530,2013,0,47.67391,-122.37689,1506B NW 62nd St, Seattle,Washington,98107,1,93.0,47.6745,-122.3775,95.0
438,3631000010,2021-12-06,1341000.0,3,3.0,1720,9375,1.0,NO,NO,YES,NONE,Average,7 Average,Gas,PUBLIC,1720,0,270,220,1967,2006,47.623395,-122.11908,1445 166th Place Northeast, Bellevue,Washington,98008,1,52.0,47.6235,-122.1195,65.0
439,2464400370,2021-11-04,1338000.0,3,2.5,2340,4365,2.0,NO,NO,YES,AVERAGE,Average,8 Good,Gas,PUBLIC,2090,1010,0,160,1908,2002,47.68553,-122.321685,526 Northeast 78th Street, Seattle,Washington,98115,1,80.0,47.685,-122.322,71.0
440,9297300898,2022-02-16,750000.0,2,2.0,1440,767,3.0,NO,NO,YES,NONE,Average,9 Better,Electricity,PUBLIC,1110,330,0,130,2018,0,47.56591,-122.37194,3070B SW Avalon Way, Seattle,Washington,98126,1,77.0,47.5665,-122.3715,61.0
441,6190700904,2021-08-02,800000.0,4,2.0,1900,10103,1.0,NO,NO,YES,NONE,Average,8 Good,Electricity,PUBLIC,1180,1180,200,0,1948,0,47.75571,-122.3608,17262 3rd Avenue Northwest, Shoreline,Washington,98177,1,27.0,47.7555,-122.361,18.0
442,1624049058,2021-08-25,815000.0,3,3.5,1780,1981,2.0,NO,NO,YES,NONE,Average,8 Good,Electricity,PUBLIC,1360,680,260,380,2017,0,47.56728,-122.29666,4020 Martin Luther King Jr Way South, Seattle,Washington,98108,1,66.0,47.568,-122.2965,70.0
443,217700170,2022-03-23,633000.0,3,2.5,1840,8938,1.0,NO,NO,YES,NONE,Average,8 Good,Gas,PUBLIC,1330,1330,800,330,1959,0,47.776725,-122.347435,20308 Whitman Avenue North, Shoreline,Washington,98133,1,65.0,47.7765,-122.3475,61.0
444,7399100110,2021-10-11,390000.0,2,1.5,1270,1800,1.0,NO,NO,NO,NONE,Average,8 Good,Electricity,PUBLIC,840,430,0,100,1966,0,47.465455,-122.190115,2008 Southeast 16th Court, Renton,Washington,98055,1,20.0,47.466,-122.19,23.0
